location,location_type,country,province,county,city,latitude,longitude
Argentina-Buenos_Aires,province,Argentina,Buenos Aires,,,-34.6036844,-58.3815591
Argentina-CABA,province,Argentina,Ciudad de Buenos Aires,,,-34.6036844,-58.3815591
Argentina-Cordoba,province,Argentina,Cordoba,,,-31.42008329999999,-64.1887761
Argentina-Entre_Rios,province,Argentina,Entre Rios,,,-31.7746654,-60.49564609999999
Argentina-Santa_Fe,province,Argentina,Santa Fe,,,-31.6106578,-60.697294
Argentina-Chaco,province,Argentina,Chaco,,,-27.4257175,-59.02437839999999
Argentina-Corrientes,province,Argentina,Corrientes,,,-27.4692131,-58.8306349
Argentina-Formosa,province,Argentina,Formosa,,,-26.1857768,-58.1755669
Argentina-Misiones,province,Argentina,Misiones,,,-27.4269255,-55.9467076
Argentina-Catamarca,province,Argentina,Catamarca,,,-28.469581,-65.7795441
Argentina-Jujuy,province,Argentina,Jujuy,,,-24.1843397,-65.302177
Argentina-Salta,province,Argentina,Salta,,,-24.7821269,-65.4231976
Argentina-Sgo_Del_Estero,province,Argentina,Santiago Del Estero,,,-27.7833574,-64.264167
Argentina-Tucuman,province,Argentina,Tucuman,,,-26.8082848,-65.2175903
Argentina-La_Rioja,province,Argentina,La Rioja,,,-29.4134538,-66.8564579
Argentina-San_Luis,province,Argentina,San Luis,,,-33.3017267,-66.3377522
Argentina-Mendoza,province,Argentina,Mendoza,,,-32.8894587,-68.8458386
Argentina-San_Juan,province,Argentina,San Juan,,,-31.5351074,-68.5385941
Argentina-Chubut,province,Argentina,Chubut,,,-43.2934246,-65.11148179999999
Argentina-La_Pampa,province,Argentina,La Pampa,,,-36.6147573,-64.2839209
Argentina-Rio_Negro,province,Argentina,Rio Negro,,,-40.8261434,-63.0266339
Argentina-Santa_Cruz,province,Argentina,Santa Cruz,,,-51.6352821,-69.24743529999999
Argentina-Neuquen,province,Argentina,Neuquen,,,-38.9516784,-68.0591888
Argentina-Tierra_del_Fuego,province,Argentina,Tierra del Fuego,,,-54.8053998,-68.3242061
Brazil-Alagoas,province,Brazil,Alagoas,,,-9.5713058,-36.7819505
Brazil-Bahia,province,Brazil,Bahia,,,-12.579738,-41.7007272
Brazil-Ceara,province,Brazil,Ceara,,,-5.4983977,-39.3206241
Brazil-Maranhao,province,Brazil,Maranhao,,,-4.9609498,-45.2744159
Brazil-Paraiba,province,Brazil,Paraiba,,,-7.239960900000001,-36.7819505
Brazil-Pernambuco,province,Brazil,Pernambuco,,,-8.8137173,-36.954107
Brazil-Piaui,province,Brazil,Piaui,,,-7.718340100000001,-42.72892359999999
Brazil-Rio_Grande_do_Norte,province,Brazil,Rio Grande do Norte,,,-5.402580299999999,-36.954107
Brazil-Sergipe,province,Brazil,Sergipe,,,-10.5740934,-37.3856581
Brazil-Espirito_Santo,province,Brazil,Espirito Santo,,,-19.1834229,-40.3088626
Brazil-Minas_Gerais,province,Brazil,Minas Gerais,,,-18.512178,-44.5550308
Brazil-Rio_de_Janeiro,province,Brazil,Rio de Janeiro,,,-22.9068467,-43.1728965
Brazil-Sao_Paulo,province,Brazil,Sao Paulo,,,-23.5505199,-46.63330939999999
Brazil-Acre,province,Brazil,Acre,,,-9.0237964,-70.81199529999999
Brazil-Amapa,province,Brazil,Amapa,,,0.9019925,-52.0029565
Brazil-Amazonas,province,Brazil,Amazonas,,,-3.4168427,-65.8560646
Brazil-Para,province,Brazil,Para,,,-1.9981271,-54.9306152
Brazil-Rondonia,province,Brazil,Rondonia,,,-11.5057341,-63.580611
Brazil-Roraima,province,Brazil,Roraima,,,2.7375971,-62.0750998
Brazil-Tocantins,province,Brazil,Tocantins,,,-10.17528,-48.2982474
Brazil-Distrito_Federal,province,Brazil,Distrito Federal,,,-15.7997654,-47.8644715
Brazil-Goias,province,Brazil,Goias,,,-15.8270369,-49.8362237
Brazil-Mato_Grosso,province,Brazil,Mato Grosso,,,-12.6818712,-56.921099
Brazil-Mato_Grosso_do_Sul,province,Brazil,Mato Grosso do Sul,,,-20.7722295,-54.7851531
Brazil-Parana,province,Brazil,Parana,,,-25.2520888,-52.0215415
Brazil-Santa_Catarina,province,Brazil,Santa Catarina,,,-27.2423392,-50.2188556
Brazil-Rio_Grande_do_Sul,province,Brazil,Rio Grande do Sul,,,-30.0346316,-51.2176986
Colombia-Antioquia-Medellin,city,Colombia,Antioquia,Medellin,Medellin,6.244203,-75.5812119
Colombia-Antioquia-Abejorral,city,Colombia,Antioquia,Abejorral,Abejorral,5.788692999999999,-75.428603
Colombia-Antioquia-Abriaqui,city,Colombia,Antioquia,Abriaqui,Abriaqui,6.634555,-76.06573999999999
Colombia-Antioquia-Alejandria,city,Colombia,Antioquia,Alejandria,Alejandria,6.37488,-75.141637
Colombia-Antioquia-Amaga,city,Colombia,Antioquia,Amaga,Amaga,6.037113000000001,-75.702277
Colombia-Antioquia-Amalfi,city,Colombia,Antioquia,Amalfi,Amalfi,6.906447999999999,-75.073161
Colombia-Antioquia-Andes,city,Colombia,Antioquia,Andes,Andes,4.570868,-74.297333
Colombia-Antioquia-Angelopolis,city,Colombia,Antioquia,Angelopolis,Angelopolis,6.112769,-75.71163899999999
Colombia-Antioquia-Angostura,city,Colombia,Antioquia,Angostura,Angostura,6.885648,-75.33582899999999
Colombia-Antioquia-Anori,city,Colombia,Antioquia,Anori,Anori,7.073562,-75.14728699999999
Colombia-Antioquia-Santafe_De_Antioquia,city,Colombia,Antioquia,Santafe De Antioquia,Santafe De Antioquia,6.557179,-75.827129
Colombia-Antioquia-Anza,city,Colombia,Antioquia,Anza,Anza,6.301106,-75.853255
Colombia-Antioquia-Apartado,city,Colombia,Antioquia,Apartado,Apartado,7.882760999999999,-76.624692
Colombia-Antioquia-Arboletes,city,Colombia,Antioquia,Arboletes,Arboletes,8.850104,-76.427089
Colombia-Antioquia-Argelia,city,Colombia,Antioquia,Argelia,Argelia,5.730859,-75.142186
Colombia-Antioquia-Armenia,city,Colombia,Antioquia,Armenia,Armenia,4.535000399999999,-75.6756888
Colombia-Antioquia-Barbosa,city,Colombia,Antioquia,Barbosa,Barbosa,6.438790999999999,-75.334099
Colombia-Antioquia-Belmira,city,Colombia,Antioquia,Belmira,Belmira,6.606241,-75.666528
Colombia-Antioquia-Bello,city,Colombia,Antioquia,Bello,Bello,6.336728799999999,-75.55958869999999
Colombia-Antioquia-Betania,city,Colombia,Antioquia,Betania,Betania,5.746649,-75.977569
Colombia-Antioquia-Betulia,city,Colombia,Antioquia,Betulia,Betulia,6.11278,-75.98467
Colombia-Antioquia-Ciudad_Bolivar,city,Colombia,Antioquia,Ciudad Bolivar,Ciudad Bolivar,5.852475999999999,-76.0218469
Colombia-Antioquia-Briceno,city,Colombia,Antioquia,Briceno,Briceno,5.690024999999999,-73.92287999999999
Colombia-Antioquia-Buritica,city,Colombia,Antioquia,Buritica,Buritica,6.721916999999999,-75.90597600000001
Colombia-Antioquia-Caceres,city,Colombia,Antioquia,Caceres,Caceres,7.579028999999998,-75.34954499999999
Colombia-Antioquia-Caicedo,city,Colombia,Antioquia,Caicedo,Caicedo,6.405354,-75.984309
Colombia-Antioquia-Caldas,city,Colombia,Antioquia,Caldas,Caldas,5.29826,-75.2479061
Colombia-Antioquia-Campamento,city,Colombia,Antioquia,Campamento,Campamento,6.979498,-75.2966019
Colombia-Antioquia-Canasgordas,city,Colombia,Antioquia,Canasgordas,Canasgordas,6.750597,-76.02611
Colombia-Antioquia-Caracoli,city,Colombia,Antioquia,Caracoli,Caracoli,6.408748999999999,-74.7576179
Colombia-Antioquia-Caramanta,city,Colombia,Antioquia,Caramanta,Caramanta,5.548956,-75.64370699999999
Colombia-Antioquia-Carepa,city,Colombia,Antioquia,Carepa,Carepa,7.755354,-76.6554309
Colombia-Antioquia-El_Carmen_De_Viboral,city,Colombia,Antioquia,El Carmen De Viboral,El Carmen De Viboral,6.082178,-75.33738400000001
Colombia-Antioquia-Carolina,city,Colombia,Antioquia,Carolina,Carolina,6.724917,-75.282299
Colombia-Antioquia-Caucasia,city,Colombia,Antioquia,Caucasia,Caucasia,7.979698,-75.1985629
Colombia-Antioquia-Chigorodo,city,Colombia,Antioquia,Chigorodo,Chigorodo,7.665099000000001,-76.67748999999999
Colombia-Antioquia-Cisneros,city,Colombia,Antioquia,Cisneros,Cisneros,6.538376,-75.08706699999999
Colombia-Antioquia-Cocorna,city,Colombia,Antioquia,Cocorna,Cocorna,6.057265,-75.185598
Colombia-Antioquia-Concepcion,city,Colombia,Antioquia,Concepcion,Concepcion,6.394353,-75.256581
Colombia-Antioquia-Concordia,city,Colombia,Antioquia,Concordia,Concordia,6.044979,-75.908354
Colombia-Antioquia-Copacabana,city,Colombia,Antioquia,Copacabana,Copacabana,6.357621,-75.505078
Colombia-Antioquia-Dabeiba,city,Colombia,Antioquia,Dabeiba,Dabeiba,6.997374,-76.256824
Colombia-Antioquia-Don_Matias,city,Colombia,Antioquia,Don Matias,Don Matias,6.485702,-75.39383099999999
Colombia-Antioquia-Ebejico,city,Colombia,Antioquia,Ebejico,Ebejico,6.326906,-75.76734499999999
Colombia-Antioquia-El_Bagre,city,Colombia,Antioquia,El Bagre,El Bagre,7.605682600000001,-74.8062648
Colombia-Antioquia-Entrerrios,city,Colombia,Antioquia,Entrerrios,Entrerrios,6.566146,-75.516908
Colombia-Antioquia-Envigado,city,Colombia,Antioquia,Envigado,Envigado,6.169610899999999,-75.58736360000002
Colombia-Antioquia-Fredonia,city,Colombia,Antioquia,Fredonia,Fredonia,5.927245,-75.671007
Colombia-Antioquia-Frontino,city,Colombia,Antioquia,Frontino,Frontino,6.777958,-76.13291699999999
Colombia-Antioquia-Giraldo,city,Colombia,Antioquia,Giraldo,Giraldo,6.680623,-75.953096
Colombia-Antioquia-Girardota,city,Colombia,Antioquia,Girardota,Girardota,6.378322,-75.449517
Colombia-Antioquia-Gomez_Plata,city,Colombia,Antioquia,Gomez Plata,Gomez Plata,6.683248,-75.221769
Colombia-Antioquia-Granada,city,Colombia,Antioquia,Granada,Granada,3.544831,-73.705281
Colombia-Antioquia-Guadalupe,city,Colombia,Antioquia,Guadalupe,Guadalupe,6.246048999999999,-73.418739
Colombia-Antioquia-Guarne,city,Colombia,Antioquia,Guarne,Guarne,6.279597,-75.442627
Colombia-Antioquia-Guatape,city,Colombia,Antioquia,Guatape,Guatape,6.231136999999999,-75.15346699999999
Colombia-Antioquia-Heliconia,city,Colombia,Antioquia,Heliconia,Heliconia,6.208781,-75.732944
Colombia-Antioquia-Hispania,city,Colombia,Antioquia,Hispania,Hispania,5.799059,-75.90799299999999
Colombia-Antioquia-Itagui,city,Colombia,Antioquia,Itagui,Itagui,6.1675682,-75.6146712
Colombia-Antioquia-Ituango,city,Colombia,Antioquia,Ituango,Ituango,7.172606999999999,-75.76468
Colombia-Antioquia-Jardin,city,Colombia,Antioquia,Jardin,Jardin,5.596767,-75.819361
Colombia-Antioquia-Jerico,city,Colombia,Antioquia,Jerico,Jerico,5.790513,-75.776082
Colombia-Antioquia-La_Ceja,city,Colombia,Antioquia,La Ceja,La Ceja,6.027632,-75.431596
Colombia-Antioquia-La_Estrella,city,Colombia,Antioquia,La Estrella,La Estrella,6.138751,-75.635586
Colombia-Antioquia-La_Pintada,city,Colombia,Antioquia,La Pintada,La Pintada,5.746942,-75.606403
Colombia-Antioquia-La_Union,city,Colombia,Antioquia,La Union,La Union,4.5334899,-76.10361600000002
Colombia-Antioquia-Liborina,city,Colombia,Antioquia,Liborina,Liborina,6.677449999999999,-75.81174399999999
Colombia-Antioquia-Maceo,city,Colombia,Antioquia,Maceo,Maceo,6.551367,-74.787294
Colombia-Antioquia-Marinilla,city,Colombia,Antioquia,Marinilla,Marinilla,6.176966999999999,-75.341462
Colombia-Antioquia-Montebello,city,Colombia,Antioquia,Montebello,Montebello,5.946486999999999,-75.52395
Colombia-Antioquia-Murindo,city,Colombia,Antioquia,Murindo,Murindo,6.981039999999999,-76.82119
Colombia-Antioquia-Mutata,city,Colombia,Antioquia,Mutata,Mutata,7.244105999999999,-76.43656700000001
Colombia-Antioquia-Narino,city,Colombia,Antioquia,Narino,Narino,1.289151,-77.35794000000001
Colombia-Antioquia-Necocli,city,Colombia,Antioquia,Necocli,Necocli,8.427173999999999,-76.787678
Colombia-Antioquia-Nechi,city,Colombia,Antioquia,Nechi,Nechi,8.088419,-74.776327
Colombia-Antioquia-Olaya,city,Colombia,Antioquia,Olaya,Olaya,6.629989999999999,-75.81665
Colombia-Antioquia-Peque,city,Colombia,Antioquia,Peque,Peque,7.021535,-75.908107
Colombia-Antioquia-Pueblorrico,city,Colombia,Antioquia,Pueblorrico,Pueblorrico,5.794161,-75.840589
Colombia-Antioquia-Puerto_Berrio,city,Colombia,Antioquia,Puerto Berrio,Puerto Berrio,6.477754999999999,-74.4088
Colombia-Antioquia-Puerto_Nare,city,Colombia,Antioquia,Puerto Nare,Puerto Nare,6.186497,-74.583726
Colombia-Antioquia-Puerto_Triunfo,city,Colombia,Antioquia,Puerto Triunfo,Puerto Triunfo,5.8807,-74.634036
Colombia-Antioquia-Remedios,city,Colombia,Antioquia,Remedios,Remedios,7.027766,-74.692965
Colombia-Antioquia-Retiro,city,Colombia,Antioquia,Retiro,Retiro,6.060955,-75.50258199999999
Colombia-Antioquia-Rionegro,city,Colombia,Antioquia,Rionegro,Rionegro,6.144837,-75.375085
Colombia-Antioquia-Sabanalarga,city,Colombia,Antioquia,Sabanalarga,Sabanalarga,6.8498854,-75.81741760000001
Colombia-Antioquia-Sabaneta,city,Colombia,Antioquia,Sabaneta,Sabaneta,6.150558999999999,-75.61681999999999
Colombia-Antioquia-Salgar,city,Colombia,Antioquia,Salgar,Salgar,5.963336,-75.963942
Colombia-Antioquia-San_Andres_De_Cuerquia,city,Colombia,Antioquia,San Andres De Cuerquia,San Andres De Cuerquia,6.913245,-75.67555999999999
Colombia-Antioquia-San_Carlos,city,Colombia,Antioquia,San Carlos,San Carlos,6.187979,-74.99322699999999
Colombia-Antioquia-San_Francisco,city,Colombia,Antioquia,San Francisco,San Francisco,4.974252,-74.291386
Colombia-Antioquia-San_Jeronimo,city,Colombia,Antioquia,San Jeronimo,San Jeronimo,6.442513,-75.72815899999999
Colombia-Antioquia-San_Jose_De_La_Montana,city,Colombia,Antioquia,San Jose De La Montana,San Jose De La Montana,6.849736,-75.684091
Colombia-Antioquia-San_Juan_De_Uraba,city,Colombia,Antioquia,San Juan De Uraba,San Juan De Uraba,8.7624549,-76.526738
Colombia-Antioquia-San_Luis,city,Colombia,Antioquia,San Luis,San Luis,6.042453999999999,-74.995071
Colombia-Antioquia-San_Pedro,city,Colombia,Antioquia,San Pedro,San Pedro,3.99411,-76.22711
Colombia-Antioquia-San_Pedro_De_Uraba,city,Colombia,Antioquia,San Pedro De Uraba,San Pedro De Uraba,8.275843,-76.379729
Colombia-Antioquia-San_Rafael,city,Colombia,Antioquia,San Rafael,San Rafael,6.293544,-75.028577
Colombia-Antioquia-San_Roque,city,Colombia,Antioquia,San Roque,San Roque,6.485831,-75.019623
Colombia-Antioquia-San_Vicente,city,Colombia,Antioquia,San Vicente,San Vicente,6.285814999999999,-75.33422
Colombia-Antioquia-Santa_Barbara,city,Colombia,Antioquia,Santa Barbara,Santa Barbara,5.874249,-75.56642099999999
Colombia-Antioquia-Santa_Rosa_De_Osos,city,Colombia,Antioquia,Santa Rosa De Osos,Santa Rosa De Osos,6.648270999999999,-75.46090099999999
Colombia-Antioquia-Santo_Domingo,city,Colombia,Antioquia,Santo Domingo,Santo Domingo,6.471563000000001,-75.16464599999999
Colombia-Antioquia-El_Santuario,city,Colombia,Antioquia,El Santuario,El Santuario,6.139610999999999,-75.26450899999999
Colombia-Antioquia-Segovia,city,Colombia,Antioquia,Segovia,Segovia,7.079604,-74.699095
Colombia-Antioquia-Sonson,city,Colombia,Antioquia,Sonson,Sonson,5.712002,-75.309798
Colombia-Antioquia-Sopetran,city,Colombia,Antioquia,Sopetran,Sopetran,6.501533999999999,-75.743398
Colombia-Antioquia-Tamesis,city,Colombia,Antioquia,Tamesis,Tamesis,5.664999,-75.714701
Colombia-Antioquia-Taraza,city,Colombia,Antioquia,Taraza,Taraza,7.583190999999999,-75.39996599999999
Colombia-Antioquia-Tarso,city,Colombia,Antioquia,Tarso,Tarso,5.864924999999999,-75.82240300000001
Colombia-Antioquia-Titiribi,city,Colombia,Antioquia,Titiribi,Titiribi,6.06259,-75.79341
Colombia-Antioquia-Toledo,city,Colombia,Antioquia,Toledo,Toledo,7.307025,-72.48044399999999
Colombia-Antioquia-Turbo,city,Colombia,Antioquia,Turbo,Turbo,8.0951588,-76.7284559
Colombia-Antioquia-Uramita,city,Colombia,Antioquia,Uramita,Uramita,6.896805,-76.17166499999999
Colombia-Antioquia-Urrao,city,Colombia,Antioquia,Urrao,Urrao,6.313860999999999,-76.13181
Colombia-Antioquia-Valdivia,city,Colombia,Antioquia,Valdivia,Valdivia,7.29117,-75.39215
Colombia-Antioquia-Valparaiso,city,Colombia,Antioquia,Valparaiso,Valparaiso,5.615156,-75.62527399999999
Colombia-Antioquia-Vegachi,city,Colombia,Antioquia,Vegachi,Vegachi,6.772879,-74.796476
Colombia-Antioquia-Venecia,city,Colombia,Antioquia,Venecia,Venecia,5.963962,-75.735417
Colombia-Antioquia-Vigia_Del_Fuerte,city,Colombia,Antioquia,Vigia Del Fuerte,Vigia Del Fuerte,6.5885816,-76.89623580000001
Colombia-Antioquia-Yali,city,Colombia,Antioquia,Yali,Yali,6.675199999999999,-74.84211
Colombia-Antioquia-Yarumal,city,Colombia,Antioquia,Yarumal,Yarumal,6.961969,-75.4190689
Colombia-Antioquia-Yolombo,city,Colombia,Antioquia,Yolombo,Yolombo,6.59995,-75.01478
Colombia-Antioquia-Yondo,city,Colombia,Antioquia,Yondo,Yondo,7.0081406,-73.91006229999999
Colombia-Antioquia-Zaragoza,city,Colombia,Antioquia,Zaragoza,Zaragoza,7.486879999999999,-74.8672519
Colombia-Barranquilla-Barranquilla,city,Colombia,Barranquilla,Barranquilla,Barranquilla,11.0041072,-74.80698129999999
Colombia-Atlantico-Baranoa,city,Colombia,Atlantico,Baranoa,Baranoa,10.796589,-74.915036
Colombia-Atlantico-Campo_De_La_Cruz,city,Colombia,Atlantico,Campo De La Cruz,Campo De La Cruz,10.379923,-74.881979
Colombia-Atlantico-Candelaria,city,Colombia,Atlantico,Candelaria,Candelaria,4.597014,-74.0728759
Colombia-Atlantico-Galapa,city,Colombia,Atlantico,Galapa,Galapa,10.898923,-74.88382299999999
Colombia-Atlantico-Juan_De_Acosta,city,Colombia,Atlantico,Juan De Acosta,Juan De Acosta,10.829092,-75.03585799999999
Colombia-Atlantico-Luruaco,city,Colombia,Atlantico,Luruaco,Luruaco,10.60959,-75.142287
Colombia-Atlantico-Malambo,city,Colombia,Atlantico,Malambo,Malambo,10.8575824,-74.7746834
Colombia-Atlantico-Manati,city,Colombia,Atlantico,Manati,Manati,10.449239,-74.95937099999999
Colombia-Atlantico-Palmar_De_Varela,city,Colombia,Atlantico,Palmar De Varela,Palmar De Varela,10.74044,-74.75527199999999
Colombia-Atlantico-Piojo,city,Colombia,Atlantico,Piojo,Piojo,10.748716,-75.107922
Colombia-Atlantico-Polonuevo,city,Colombia,Atlantico,Polonuevo,Polonuevo,10.777471,-74.853162
Colombia-Atlantico-Ponedera,city,Colombia,Atlantico,Ponedera,Ponedera,10.641772,-74.753281
Colombia-Atlantico-Puerto_Colombia,city,Colombia,Atlantico,Puerto Colombia,Puerto Colombia,11.001004,-74.950761
Colombia-Atlantico-Repelon,city,Colombia,Atlantico,Repelon,Repelon,10.494762,-75.123706
Colombia-Atlantico-Sabanagrande,city,Colombia,Atlantico,Sabanagrande,Sabanagrande,10.789771,-74.755201
Colombia-Atlantico-Sabanalarga,city,Colombia,Atlantico,Sabanalarga,Sabanalarga,6.8498854,-75.81741760000001
Colombia-Atlantico-Santa_Lucia,city,Colombia,Atlantico,Santa Lucia,Santa Lucia,10.323959,-74.961495
Colombia-Atlantico-Santo_Tomas,city,Colombia,Atlantico,Santo Tomas,Santo Tomas,10.763286,-74.75649899999999
Colombia-Atlantico-Soledad,city,Colombia,Atlantico,Soledad,Soledad,10.9170486,-74.799071
Colombia-Atlantico-Suan,city,Colombia,Atlantico,Suan,Suan,10.332392,-74.879829
Colombia-Atlantico-Tubara,city,Colombia,Atlantico,Tubara,Tubara,10.872762,-74.97735399999999
Colombia-Atlantico-Usiacuri,city,Colombia,Atlantico,Usiacuri,Usiacuri,10.741163,-74.976528
Colombia-Cartagena-Cartagena,city,Colombia,Cartagena,Cartagena,Cartagena,10.3910485,-75.4794257
Colombia-Bolivar-Achi,city,Colombia,Bolivar,Achi,Achi,8.567684999999999,-74.5559339
Colombia-Bolivar-Altos_Del_Rosario,city,Colombia,Bolivar,Altos Del Rosario,Altos Del Rosario,8.792731999999999,-74.16436519999999
Colombia-Bolivar-Arenal,city,Colombia,Bolivar,Arenal,Arenal,8.45917,-73.94093
Colombia-Bolivar-Arjona,city,Colombia,Bolivar,Arjona,Arjona,10.252471,-75.347308
Colombia-Bolivar-Arroyohondo,city,Colombia,Bolivar,Arroyohondo,Arroyohondo,10.256929,-75.019121
Colombia-Bolivar-Barranco_De_Loba,city,Colombia,Bolivar,Barranco De Loba,Barranco De Loba,8.94862,-74.11247999999999
Colombia-Bolivar-Calamar,city,Colombia,Bolivar,Calamar,Calamar,10.249349,-74.914706
Colombia-Bolivar-Cantagallo,city,Colombia,Bolivar,Cantagallo,Cantagallo,7.381529999999999,-73.91912099999999
Colombia-Bolivar-Cicuco,city,Colombia,Bolivar,Cicuco,Cicuco,9.276819999999999,-74.64532
Colombia-Bolivar-Cordoba,city,Colombia,Bolivar,Cordoba,Cordoba,8.049293,-75.57405
Colombia-Bolivar-Clemencia,city,Colombia,Bolivar,Clemencia,Clemencia,10.568962,-75.3257409
Colombia-Bolivar-El_Carmen_De_Bolivar,city,Colombia,Bolivar,El Carmen De Bolivar,El Carmen De Bolivar,9.721064,-75.11573299999999
Colombia-Bolivar-El_Guamo,city,Colombia,Bolivar,El Guamo,El Guamo,4.02926,-74.974795
Colombia-Bolivar-El_Penon,city,Colombia,Bolivar,El Penon,El Penon,6.223611,-75.178333
Colombia-Bolivar-Hatillo_De_Loba,city,Colombia,Bolivar,Hatillo De Loba,Hatillo De Loba,8.956007,-74.0774969
Colombia-Bolivar-Magangue,city,Colombia,Bolivar,Magangue,Magangue,9.2414156,-74.7527587
Colombia-Bolivar-Mahates,city,Colombia,Bolivar,Mahates,Mahates,10.235048,-75.19129699999999
Colombia-Bolivar-Margarita,city,Colombia,Bolivar,Margarita,Margarita,9.0833333,-74.5
Colombia-Bolivar-Maria_La_Baja,city,Colombia,Bolivar,Maria La Baja,Maria La Baja,9.983775,-75.303139
Colombia-Bolivar-Montecristo,city,Colombia,Bolivar,Montecristo,Montecristo,8.299479999999999,-74.47563
Colombia-Bolivar-Mompos,city,Colombia,Bolivar,Mompos,Mompos,9.240146,-74.42449599999999
Colombia-Bolivar-Norosi,city,Colombia,Bolivar,Norosi,Norosi,8.528027,-74.037018
Colombia-Bolivar-Morales,city,Colombia,Bolivar,Morales,Morales,2.753912,-76.628114
Colombia-Bolivar-Pinillos,city,Colombia,Bolivar,Pinillos,Pinillos,8.9245,-74.47032999999999
Colombia-Bolivar-Regidor,city,Colombia,Bolivar,Regidor,Regidor,8.665089,-73.82266299999999
Colombia-Bolivar-Rio_Viejo,city,Colombia,Bolivar,Rio Viejo,Rio Viejo,8.588396999999999,-73.84025799999999
Colombia-Bolivar-San_Cristobal,city,Colombia,Bolivar,San Cristobal,San Cristobal,10.39432,-75.063889
Colombia-Bolivar-San_Estanislao,city,Colombia,Bolivar,San Estanislao,San Estanislao,10.39902,-75.15223999999999
Colombia-Bolivar-San_Fernando,city,Colombia,Bolivar,San Fernando,San Fernando,9.21758,-74.3271649
Colombia-Bolivar-San_Jacinto,city,Colombia,Bolivar,San Jacinto,San Jacinto,9.834831999999999,-75.120521
Colombia-Bolivar-San_Jacinto_Del_Cauca,city,Colombia,Bolivar,San Jacinto Del Cauca,San Jacinto Del Cauca,8.2498841,-74.72236749999999
Colombia-Bolivar-San_Juan_Nepomuceno,city,Colombia,Bolivar,San Juan Nepomuceno,San Juan Nepomuceno,9.951139999999999,-75.083828
Colombia-Bolivar-San_Martin_De_Loba,city,Colombia,Bolivar,San Martin De Loba,San Martin De Loba,8.940875,-74.03787
Colombia-Bolivar-San_Pablo,city,Colombia,Bolivar,San Pablo,San Pablo,7.477887,-73.92410799999999
Colombia-Bolivar-Santa_Catalina,city,Colombia,Bolivar,Santa Catalina,Santa Catalina,13.3875121,-81.37568619999999
Colombia-Bolivar-Santa_Rosa,city,Colombia,Bolivar,Santa Rosa,Santa Rosa,4.870121,-75.62239
Colombia-Bolivar-Santa_Rosa_Del_Sur,city,Colombia,Bolivar,Santa Rosa Del Sur,Santa Rosa Del Sur,7.9629547,-74.0520439
Colombia-Bolivar-Simiti,city,Colombia,Bolivar,Simiti,Simiti,7.957151,-73.946404
Colombia-Bolivar-Soplaviento,city,Colombia,Bolivar,Soplaviento,Soplaviento,10.390061,-75.1360119
Colombia-Bolivar-Talaigua_Nuevo,city,Colombia,Bolivar,Talaigua Nuevo,Talaigua Nuevo,9.303469000000002,-74.567972
Colombia-Bolivar-Tiquisio,city,Colombia,Bolivar,Tiquisio,Tiquisio,8.55768,-74.26361
Colombia-Bolivar-Turbaco,city,Colombia,Bolivar,Turbaco,Turbaco,10.334638,-75.412672
Colombia-Bolivar-Turbana,city,Colombia,Bolivar,Turbana,Turbana,10.274743,-75.441594
Colombia-Bolivar-Villanueva,city,Colombia,Bolivar,Villanueva,Villanueva,10.603721,-72.98193599999999
Colombia-Bolivar-Zambrano,city,Colombia,Bolivar,Zambrano,Zambrano,9.744553999999999,-74.81620000000001
Colombia-Boyaca-Tunja,city,Colombia,Boyaca,Tunja,Tunja,5.5446422,-73.3575572
Colombia-Boyaca-Almeida,city,Colombia,Boyaca,Almeida,Almeida,4.97088,-73.37989999999999
Colombia-Boyaca-Aquitania,city,Colombia,Boyaca,Aquitania,Aquitania,5.5197139,-72.88419800000001
Colombia-Boyaca-Arcabuco,city,Colombia,Boyaca,Arcabuco,Arcabuco,5.754518,-73.437338
Colombia-Boyaca-Belen,city,Colombia,Boyaca,Belen,Belen,6.231928,-75.60116719999999
Colombia-Boyaca-Berbeo,city,Colombia,Boyaca,Berbeo,Berbeo,5.226973999999999,-73.127259
Colombia-Boyaca-Beteitiva,city,Colombia,Boyaca,Beteitiva,Beteitiva,5.910362,-72.808987
Colombia-Boyaca-Boavita,city,Colombia,Boyaca,Boavita,Boavita,6.331521,-72.583418
Colombia-Boyaca-Boyaca,city,Colombia,Boyaca,Boyaca,Boyaca,5.454511,-73.362003
Colombia-Boyaca-Briceno,city,Colombia,Boyaca,Briceno,Briceno,5.690024999999999,-73.92287999999999
Colombia-Boyaca-Buenavista,city,Colombia,Boyaca,Buenavista,Buenavista,4.358752,-75.740163
Colombia-Boyaca-Busbanza,city,Colombia,Boyaca,Busbanza,Busbanza,5.830509,-72.883814
Colombia-Boyaca-Caldas,city,Colombia,Boyaca,Caldas,Caldas,5.29826,-75.2479061
Colombia-Boyaca-Campohermoso,city,Colombia,Boyaca,Campohermoso,Campohermoso,5.031048,-73.103869
Colombia-Boyaca-Cerinza,city,Colombia,Boyaca,Cerinza,Cerinza,5.95661,-72.9489509
Colombia-Boyaca-Chinavita,city,Colombia,Boyaca,Chinavita,Chinavita,5.166615,-73.36877
Colombia-Boyaca-Chiquinquira,city,Colombia,Boyaca,Chiquinquira,Chiquinquira,5.614775,-73.819571
Colombia-Boyaca-Chiscas,city,Colombia,Boyaca,Chiscas,Chiscas,6.552740999999999,-72.5003179
Colombia-Boyaca-Chita,city,Colombia,Boyaca,Chita,Chita,6.187240999999999,-72.471221
Colombia-Boyaca-Chitaraque,city,Colombia,Boyaca,Chitaraque,Chitaraque,6.027467,-73.446429
Colombia-Boyaca-Chivata,city,Colombia,Boyaca,Chivata,Chivata,5.558452,-73.282611
Colombia-Boyaca-Cienega,city,Colombia,Boyaca,Cienega,Cienega,11.007984,-74.248926
Colombia-Boyaca-Combita,city,Colombia,Boyaca,Combita,Combita,5.634202,-73.323263
Colombia-Boyaca-Coper,city,Colombia,Boyaca,Coper,Coper,5.4752599,-74.04497700000002
Colombia-Boyaca-Corrales,city,Colombia,Boyaca,Corrales,Corrales,5.828673999999999,-72.844945
Colombia-Boyaca-Covarachia,city,Colombia,Boyaca,Covarachia,Covarachia,6.500365,-72.739244
Colombia-Boyaca-Cubara,city,Colombia,Boyaca,Cubara,Cubara,7.00178,-72.108186
Colombia-Boyaca-Cucaita,city,Colombia,Boyaca,Cucaita,Cucaita,5.543296,-73.454842
Colombia-Boyaca-Cuitiva,city,Colombia,Boyaca,Cuitiva,Cuitiva,5.580527,-72.966174
Colombia-Boyaca-Chiquiza,city,Colombia,Boyaca,Chiquiza,Chiquiza,5.605474,-73.48499199999999
Colombia-Boyaca-Chivor,city,Colombia,Boyaca,Chivor,Chivor,4.888109,-73.36692599999999
Colombia-Boyaca-Duitama,city,Colombia,Boyaca,Duitama,Duitama,5.8268951,-73.0329273
Colombia-Boyaca-El_Cocuy,city,Colombia,Boyaca,El Cocuy,El Cocuy,6.408891,-72.4454499
Colombia-Boyaca-El_Espino,city,Colombia,Boyaca,El Espino,El Espino,6.4864,-72.43285999999999
Colombia-Boyaca-Firavitoba,city,Colombia,Boyaca,Firavitoba,Firavitoba,5.668899,-72.994095
Colombia-Boyaca-Floresta,city,Colombia,Boyaca,Floresta,Floresta,5.859347,-72.919056
Colombia-Boyaca-Gachantiva,city,Colombia,Boyaca,Gachantiva,Gachantiva,5.752134,-73.54938
Colombia-Boyaca-Gameza,city,Colombia,Boyaca,Gameza,Gameza,5.802567,-72.80632
Colombia-Boyaca-Garagoa,city,Colombia,Boyaca,Garagoa,Garagoa,5.082453,-73.36504599999999
Colombia-Boyaca-Guacamayas,city,Colombia,Boyaca,Guacamayas,Guacamayas,6.459443,-72.50000899999999
Colombia-Boyaca-Guateque,city,Colombia,Boyaca,Guateque,Guateque,5.006385,-73.471423
Colombia-Boyaca-Guayata,city,Colombia,Boyaca,Guayata,Guayata,4.968157,-73.490098
Colombia-Boyaca-Guican,city,Colombia,Boyaca,Guican,Guican,6.463042,-72.412077
Colombia-Boyaca-Iza,city,Colombia,Boyaca,Iza,Iza,5.614709,-72.979939
Colombia-Boyaca-Jenesano,city,Colombia,Boyaca,Jenesano,Jenesano,5.385032,-73.364139
Colombia-Boyaca-Jerico,city,Colombia,Boyaca,Jerico,Jerico,5.790513,-75.776082
Colombia-Boyaca-Labranzagrande,city,Colombia,Boyaca,Labranzagrande,Labranzagrande,5.562762999999999,-72.57762799999999
Colombia-Boyaca-La_Capilla,city,Colombia,Boyaca,La Capilla,La Capilla,5.095405,-73.444632
Colombia-Boyaca-La_Victoria,city,Colombia,Boyaca,La Victoria,La Victoria,4.5241049,-76.03607099999999
Colombia-Boyaca-La_Uvita,city,Colombia,Boyaca,La Uvita,La Uvita,6.316914,-72.559662
Colombia-Boyaca-Villa_De_Leyva,city,Colombia,Boyaca,Villa De Leyva,Villa De Leyva,5.636499,-73.527058
Colombia-Boyaca-Macanal,city,Colombia,Boyaca,Macanal,Macanal,4.972354,-73.319081
Colombia-Boyaca-Maripi,city,Colombia,Boyaca,Maripi,Maripi,5.549623,-74.0046909
Colombia-Boyaca-Miraflores,city,Colombia,Boyaca,Miraflores,Miraflores,1.337454,-71.950914
Colombia-Boyaca-Mongua,city,Colombia,Boyaca,Mongua,Mongua,5.7541536,-72.7998479
Colombia-Boyaca-Mongui,city,Colombia,Boyaca,Mongui,Mongui,5.723205999999999,-72.84908899999999
Colombia-Boyaca-Moniquira,city,Colombia,Boyaca,Moniquira,Moniquira,5.875986999999999,-73.57359
Colombia-Boyaca-Motavita,city,Colombia,Boyaca,Motavita,Motavita,5.577547,-73.368186
Colombia-Boyaca-Muzo,city,Colombia,Boyaca,Muzo,Muzo,5.531629,-74.103016
Colombia-Boyaca-Nobsa,city,Colombia,Boyaca,Nobsa,Nobsa,5.767186,-72.9369789
Colombia-Boyaca-Nuevo_Colon,city,Colombia,Boyaca,Nuevo Colon,Nuevo Colon,5.354864999999999,-73.457382
Colombia-Boyaca-Oicata,city,Colombia,Boyaca,Oicata,Oicata,5.59445,-73.3082529
Colombia-Boyaca-Otanche,city,Colombia,Boyaca,Otanche,Otanche,5.658513999999999,-74.181142
Colombia-Boyaca-Pachavita,city,Colombia,Boyaca,Pachavita,Pachavita,5.139940999999999,-73.39714699999999
Colombia-Boyaca-Paez,city,Colombia,Boyaca,Paez,Paez,2.65474,-75.9928
Colombia-Boyaca-Paipa,city,Colombia,Boyaca,Paipa,Paipa,5.77977,-73.11472499999999
Colombia-Boyaca-Pajarito,city,Colombia,Boyaca,Pajarito,Pajarito,5.2931929,-72.70281790000001
Colombia-Boyaca-Panqueba,city,Colombia,Boyaca,Panqueba,Panqueba,6.443113899999999,-72.458962
Colombia-Boyaca-Pauna,city,Colombia,Boyaca,Pauna,Pauna,5.656439,-73.978073
Colombia-Boyaca-Paya,city,Colombia,Boyaca,Paya,Paya,5.624829999999999,-72.42381
Colombia-Boyaca-Paz_De_Rio,city,Colombia,Boyaca,Paz De Rio,Paz De Rio,5.987618899999999,-72.74707599999999
Colombia-Boyaca-Pesca,city,Colombia,Boyaca,Pesca,Pesca,5.558883,-73.050631
Colombia-Boyaca-Pisba,city,Colombia,Boyaca,Pisba,Pisba,5.722797,-72.48457499999999
Colombia-Boyaca-Puerto_Boyaca,city,Colombia,Boyaca,Puerto Boyaca,Puerto Boyaca,5.977237,-74.593395
Colombia-Boyaca-Quipama,city,Colombia,Boyaca,Quipama,Quipama,5.522646,-74.18113199999999
Colombia-Boyaca-Ramiriqui,city,Colombia,Boyaca,Ramiriqui,Ramiriqui,5.401841,-73.33573799999999
Colombia-Boyaca-Raquira,city,Colombia,Boyaca,Raquira,Raquira,5.5382999,-73.632154
Colombia-Boyaca-Rondon,city,Colombia,Boyaca,Rondon,Rondon,5.3570209,-73.208421
Colombia-Boyaca-Saboya,city,Colombia,Boyaca,Saboya,Saboya,5.697782999999999,-73.76493099999999
Colombia-Boyaca-Sachica,city,Colombia,Boyaca,Sachica,Sachica,5.583059,-73.542575
Colombia-Boyaca-Samaca,city,Colombia,Boyaca,Samaca,Samaca,5.492342,-73.486159
Colombia-Boyaca-San_Eduardo,city,Colombia,Boyaca,San Eduardo,San Eduardo,5.224586,-73.078446
Colombia-Boyaca-San_Jose_De_Pare,city,Colombia,Boyaca,San Jose De Pare,San Jose De Pare,6.017629899999999,-73.54778999999999
Colombia-Boyaca-San_Luis_De_Gaceno,city,Colombia,Boyaca,San Luis De Gaceno,San Luis De Gaceno,4.819789999999999,-73.16949
Colombia-Boyaca-San_Mateo,city,Colombia,Boyaca,San Mateo,San Mateo,6.402012999999999,-72.5546339
Colombia-Boyaca-San_Miguel_De_Sema,city,Colombia,Boyaca,San Miguel De Sema,San Miguel De Sema,5.517709,-73.72249699999999
Colombia-Boyaca-San_Pablo_De_Borbur,city,Colombia,Boyaca,San Pablo De Borbur,San Pablo De Borbur,5.651820000000001,-74.06978
Colombia-Boyaca-Santana,city,Colombia,Boyaca,Santana,Santana,6.057239999999999,-73.48223
Colombia-Boyaca-Santa_Maria,city,Colombia,Boyaca,Santa Maria,Santa Maria,11.2403547,-74.2110227
Colombia-Boyaca-Santa_Rosa_De_Viterbo,city,Colombia,Boyaca,Santa Rosa De Viterbo,Santa Rosa De Viterbo,5.873789899999999,-72.982728
Colombia-Boyaca-Santa_Sofia,city,Colombia,Boyaca,Santa Sofia,Santa Sofia,5.713960999999999,-73.602068
Colombia-Boyaca-Sativanorte,city,Colombia,Boyaca,Sativanorte,Sativanorte,6.131271,-72.708125
Colombia-Boyaca-Sativasur,city,Colombia,Boyaca,Sativasur,Sativasur,6.093446999999999,-72.71202199999999
Colombia-Boyaca-Siachoque,city,Colombia,Boyaca,Siachoque,Siachoque,5.511608,-73.244834
Colombia-Boyaca-Soata,city,Colombia,Boyaca,Soata,Soata,6.336161,-72.6815699
Colombia-Boyaca-Socota,city,Colombia,Boyaca,Socota,Socota,6.041520999999999,-72.636498
Colombia-Boyaca-Socha,city,Colombia,Boyaca,Socha,Socha,5.997129999999999,-72.692665
Colombia-Boyaca-Sogamoso,city,Colombia,Boyaca,Sogamoso,Sogamoso,5.7160848,-72.93112889999999
Colombia-Boyaca-Somondoco,city,Colombia,Boyaca,Somondoco,Somondoco,4.985763,-73.43302
Colombia-Boyaca-Sora,city,Colombia,Boyaca,Sora,Sora,5.566838,-73.45009499999999
Colombia-Boyaca-Sotaquira,city,Colombia,Boyaca,Sotaquira,Sotaquira,5.76532,-73.246566
Colombia-Boyaca-Soraca,city,Colombia,Boyaca,Soraca,Soraca,5.500849,-73.332701
Colombia-Boyaca-Susacon,city,Colombia,Boyaca,Susacon,Susacon,6.230563,-72.689835
Colombia-Boyaca-Sutamarchan,city,Colombia,Boyaca,Sutamarchan,Sutamarchan,5.620003,-73.620936
Colombia-Boyaca-Sutatenza,city,Colombia,Boyaca,Sutatenza,Sutatenza,5.023402000000001,-73.45219399999999
Colombia-Boyaca-Tasco,city,Colombia,Boyaca,Tasco,Tasco,5.909396,-72.78081
Colombia-Boyaca-Tenza,city,Colombia,Boyaca,Tenza,Tenza,5.077311,-73.421476
Colombia-Boyaca-Tibana,city,Colombia,Boyaca,Tibana,Tibana,5.316775,-73.397943
Colombia-Boyaca-Tibasosa,city,Colombia,Boyaca,Tibasosa,Tibasosa,5.73332,-73.00003
Colombia-Boyaca-Tinjaca,city,Colombia,Boyaca,Tinjaca,Tinjaca,5.578688,-73.64719
Colombia-Boyaca-Tipacoque,city,Colombia,Boyaca,Tipacoque,Tipacoque,6.420758999999999,-72.691054
Colombia-Boyaca-Toca,city,Colombia,Boyaca,Toca,Toca,5.566401,-73.185051
Colombia-Boyaca-Togui,city,Colombia,Boyaca,Togui,Togui,5.3906,-73.51673000000001
Colombia-Boyaca-Topaga,city,Colombia,Boyaca,Topaga,Topaga,5.768717,-72.831906
Colombia-Boyaca-Tota,city,Colombia,Boyaca,Tota,Tota,5.560332,-72.985939
Colombia-Boyaca-Tunungua,city,Colombia,Boyaca,Tunungua,Tunungua,5.7304983,-73.93341029999999
Colombia-Boyaca-Turmeque,city,Colombia,Boyaca,Turmeque,Turmeque,5.324008,-73.4921449
Colombia-Boyaca-Tuta,city,Colombia,Boyaca,Tuta,Tuta,5.690894,-73.225987
Colombia-Boyaca-Tutaza,city,Colombia,Boyaca,Tutaza,Tutaza,6.032857,-72.856391
Colombia-Boyaca-Umbita,city,Colombia,Boyaca,Umbita,Umbita,5.22138,-73.45687
Colombia-Boyaca-Ventaquemada,city,Colombia,Boyaca,Ventaquemada,Ventaquemada,5.372167,-73.522672
Colombia-Boyaca-Viracacha,city,Colombia,Boyaca,Viracacha,Viracacha,5.437028,-73.296449
Colombia-Boyaca-Zetaquira,city,Colombia,Boyaca,Zetaquira,Zetaquira,5.284206,-73.171179
Colombia-Caldas-Manizales,city,Colombia,Caldas,Manizales,Manizales,5.070275,-75.5138166
Colombia-Caldas-Aguadas,city,Colombia,Caldas,Aguadas,Aguadas,5.608334,-75.453135
Colombia-Caldas-Anserma,city,Colombia,Caldas,Anserma,Anserma,5.242598,-75.781831
Colombia-Caldas-Aranzazu,city,Colombia,Caldas,Aranzazu,Aranzazu,5.271896,-75.490582
Colombia-Caldas-Belalcazar,city,Colombia,Caldas,Belalcazar,Belalcazar,4.994942,-75.8048759
Colombia-Caldas-Chinchina,city,Colombia,Caldas,Chinchina,Chinchina,4.98273,-75.60526
Colombia-Caldas-Filadelfia,city,Colombia,Caldas,Filadelfia,Filadelfia,5.2977,-75.56234490000001
Colombia-Caldas-La_Dorada,city,Colombia,Caldas,La Dorada,La Dorada,5.472709,-74.66798399999999
Colombia-Caldas-La_Merced,city,Colombia,Caldas,La Merced,La Merced,5.398218,-75.5470349
Colombia-Caldas-Manzanares,city,Colombia,Caldas,Manzanares,Manzanares,5.255906,-75.1538939
Colombia-Caldas-Marmato,city,Colombia,Caldas,Marmato,Marmato,5.474716,-75.601051
Colombia-Caldas-Marquetalia,city,Colombia,Caldas,Marquetalia,Marquetalia,5.300064,-75.051548
Colombia-Caldas-Marulanda,city,Colombia,Caldas,Marulanda,Marulanda,5.2843859,-75.259705
Colombia-Caldas-Neira,city,Colombia,Caldas,Neira,Neira,5.166841,-75.52035599999999
Colombia-Caldas-Norcasia,city,Colombia,Caldas,Norcasia,Norcasia,5.576269,-74.889557
Colombia-Caldas-Pacora,city,Colombia,Caldas,Pacora,Pacora,5.527995,-75.459881
Colombia-Caldas-Palestina,city,Colombia,Caldas,Palestina,Palestina,5.02022,-75.62281
Colombia-Caldas-Pensilvania,city,Colombia,Caldas,Pensilvania,Pensilvania,5.38211,-75.16142599999999
Colombia-Caldas-Riosucio,city,Colombia,Caldas,Riosucio,Riosucio,5.420683899999999,-75.705388
Colombia-Caldas-Risaralda,city,Colombia,Caldas,Risaralda,Risaralda,5.315847499999999,-75.9927652
Colombia-Caldas-Salamina,city,Colombia,Caldas,Salamina,Salamina,5.402354,-75.486468
Colombia-Caldas-Samana,city,Colombia,Caldas,Samana,Samana,5.413047,-74.99146390000001
Colombia-Caldas-San_Jose,city,Colombia,Caldas,San Jose,San Jose,5.08414,-75.7903
Colombia-Caldas-Supia,city,Colombia,Caldas,Supia,Supia,5.45589,-75.65040100000002
Colombia-Caldas-Victoria,city,Colombia,Caldas,Victoria,Victoria,5.317755,-74.91071099999999
Colombia-Caldas-Villamaria,city,Colombia,Caldas,Villamaria,Villamaria,5.042568999999999,-75.514771
Colombia-Caldas-Viterbo,city,Colombia,Caldas,Viterbo,Viterbo,5.0605779,-75.87235600000001
Colombia-Caqueta-Florencia,city,Colombia,Caqueta,Florencia,Florencia,1.6153858,-75.60423639999999
Colombia-Caqueta-Albania,city,Colombia,Caqueta,Albania,Albania,11.160651,-72.59190699999999
Colombia-Caqueta-Belen_De_Los_Andaquies,city,Colombia,Caqueta,Belen De Los Andaquies,Belen De Los Andaquies,1.41608,-75.87266
Colombia-Caqueta-Cartagena_Del_Chaira,city,Colombia,Caqueta,Cartagena Del Chaira,Cartagena Del Chaira,1.3338448,-74.84340259999999
Colombia-Caqueta-Curillo,city,Colombia,Caqueta,Curillo,Curillo,1.033817,-75.920771
Colombia-Caqueta-El_Doncello,city,Colombia,Caqueta,El Doncello,El Doncello,1.680042,-75.2833349
Colombia-Caqueta-El_Paujil,city,Colombia,Caqueta,El Paujil,El Paujil,1.571227,-75.3266979
Colombia-Caqueta-La_Montanita,city,Colombia,Caqueta,La Montanita,La Montanita,1.47888,-75.43724
Colombia-Caqueta-Milan,city,Colombia,Caqueta,Milan,Milan,1.34833,-75.5117
Colombia-Caqueta-Morelia,city,Colombia,Caqueta,Morelia,Morelia,1.485694,-75.723179
Colombia-Caqueta-Puerto_Rico,city,Colombia,Caqueta,Puerto Rico,Puerto Rico,1.909918,-75.157235
Colombia-Caqueta-San_Jose_Del_Fragua,city,Colombia,Caqueta,San Jose Del Fragua,San Jose Del Fragua,1.3313483,-75.9739003
Colombia-Caqueta-San_Vicente_Del_Caguan,city,Colombia,Caqueta,San Vicente Del Caguan,San Vicente Del Caguan,2.1136446,-74.7732056
Colombia-Caqueta-Solano,city,Colombia,Caqueta,Solano,Solano,6.222551999999999,-77.40115399999999
Colombia-Caqueta-Solita,city,Colombia,Caqueta,Solita,Solita,0.88022,-75.62058999999999
Colombia-Caqueta-Valparaiso,city,Colombia,Caqueta,Valparaiso,Valparaiso,5.615156,-75.62527399999999
Colombia-Cauca-Popayan,city,Colombia,Cauca,Popayan,Popayan,2.4448143,-76.6147395
Colombia-Cauca-Almaguer,city,Colombia,Cauca,Almaguer,Almaguer,1.914182,-76.854839
Colombia-Cauca-Argelia,city,Colombia,Cauca,Argelia,Argelia,5.730859,-75.142186
Colombia-Cauca-Balboa,city,Colombia,Cauca,Balboa,Balboa,2.040728,-77.216606
Colombia-Cauca-Bolivar,city,Colombia,Cauca,Bolivar,Bolivar,8.6704382,-74.0300122
Colombia-Cauca-Buenos_Aires,city,Colombia,Cauca,Buenos Aires,Buenos Aires,3.01334,-76.643755
Colombia-Cauca-Cajibio,city,Colombia,Cauca,Cajibio,Cajibio,2.621916,-76.57160800000001
Colombia-Cauca-Caldono,city,Colombia,Cauca,Caldono,Caldono,2.796679,-76.48577
Colombia-Cauca-Caloto,city,Colombia,Cauca,Caloto,Caloto,3.033544,-76.408081
Colombia-Cauca-Corinto,city,Colombia,Cauca,Corinto,Corinto,3.174159,-76.25880200000002
Colombia-Cauca-El_Tambo,city,Colombia,Cauca,El Tambo,El Tambo,2.452695,-76.81132199999999
Colombia-Cauca-Florencia,city,Colombia,Cauca,Florencia,Florencia,1.6153858,-75.60423639999999
Colombia-Cauca-Guachene,city,Colombia,Cauca,Guachene,Guachene,3.1329159,-76.393794
Colombia-Cauca-Guapi,city,Colombia,Cauca,Guapi,Guapi,2.571287,-77.885469
Colombia-Cauca-Inza,city,Colombia,Cauca,Inza,Inza,2.55168,-76.06517
Colombia-Cauca-Jambalo,city,Colombia,Cauca,Jambalo,Jambalo,2.777846,-76.324327
Colombia-Cauca-La_Sierra,city,Colombia,Cauca,La Sierra,La Sierra,2.17845,-76.76214
Colombia-Cauca-La_Vega,city,Colombia,Cauca,La Vega,La Vega,5.000528,-74.339439
Colombia-Cauca-Lopez,city,Colombia,Cauca,Lopez,Lopez,2.8458039,-77.24803899999999
Colombia-Cauca-Mercaderes,city,Colombia,Cauca,Mercaderes,Mercaderes,1.795801,-77.163397
Colombia-Cauca-Miranda,city,Colombia,Cauca,Miranda,Miranda,3.251528,-76.229027
Colombia-Cauca-Morales,city,Colombia,Cauca,Morales,Morales,2.753912,-76.628114
Colombia-Cauca-Padilla,city,Colombia,Cauca,Padilla,Padilla,3.223586,-76.3133579
Colombia-Cauca-Paez,city,Colombia,Cauca,Paez,Paez,2.65474,-75.9928
Colombia-Cauca-Patia,city,Colombia,Cauca,Patia,Patia,2.069301,-77.053095
Colombia-Cauca-Piamonte,city,Colombia,Cauca,Piamonte,Piamonte,1.117611,-76.31997199999999
Colombia-Cauca-Piendamo,city,Colombia,Cauca,Piendamo,Piendamo,2.6430699,-76.98917999999999
Colombia-Cauca-Puerto_Tejada,city,Colombia,Cauca,Puerto Tejada,Puerto Tejada,3.22059,-76.415465
Colombia-Cauca-Purace,city,Colombia,Cauca,Purace,Purace,2.3138889,-76.3952778
Colombia-Cauca-Rosas,city,Colombia,Cauca,Rosas,Rosas,2.261858,-76.7406139
Colombia-Cauca-San_Sebastian,city,Colombia,Cauca,San Sebastian,San Sebastian,1.838574,-76.770954
Colombia-Cauca-Santander_De_Quilichao,city,Colombia,Cauca,Santander De Quilichao,Santander De Quilichao,3.01228,-76.484533
Colombia-Cauca-Santa_Rosa,city,Colombia,Cauca,Santa Rosa,Santa Rosa,4.870121,-75.62239
Colombia-Cauca-Silvia,city,Colombia,Cauca,Silvia,Silvia,2.611615,-76.37754
Colombia-Cauca-Sotara,city,Colombia,Cauca,Sotara,Sotara,2.2781525,-76.5950555
Colombia-Cauca-Suarez,city,Colombia,Cauca,Suarez,Suarez,2.9543832,-76.69540889999999
Colombia-Cauca-Sucre,city,Colombia,Cauca,Sucre,Sucre,8.813977,-74.723283
Colombia-Cauca-Timbio,city,Colombia,Cauca,Timbio,Timbio,2.352686,-76.683352
Colombia-Cauca-Timbiqui,city,Colombia,Cauca,Timbiqui,Timbiqui,2.777744,-77.66760599999999
Colombia-Cauca-Toribio,city,Colombia,Cauca,Toribio,Toribio,2.9562909,-76.2704
Colombia-Cauca-Totoro,city,Colombia,Cauca,Totoro,Totoro,2.509941,-76.40173
Colombia-Cauca-Villa_Rica,city,Colombia,Cauca,Villa Rica,Villa Rica,2.51364,-76.84774
Colombia-Cesar-Valledupar,city,Colombia,Cesar,Valledupar,Valledupar,10.4742449,-73.2436335
Colombia-Cesar-Aguachica,city,Colombia,Cesar,Aguachica,Aguachica,8.305925,-73.611665
Colombia-Cesar-Agustin_Codazzi,city,Colombia,Cesar,Agustin Codazzi,Agustin Codazzi,10.034716,-73.237105
Colombia-Cesar-Astrea,city,Colombia,Cesar,Astrea,Astrea,9.496125,-73.976122
Colombia-Cesar-Becerril,city,Colombia,Cesar,Becerril,Becerril,9.703677,-73.278795
Colombia-Cesar-Bosconia,city,Colombia,Cesar,Bosconia,Bosconia,9.970362,-73.890531
Colombia-Cesar-Chimichagua,city,Colombia,Cesar,Chimichagua,Chimichagua,9.2571429,-73.812877
Colombia-Cesar-Chiriguana,city,Colombia,Cesar,Chiriguana,Chiriguana,9.361464,-73.5997
Colombia-Cesar-Curumani,city,Colombia,Cesar,Curumani,Curumani,9.201062,-73.5425659
Colombia-Cesar-El_Copey,city,Colombia,Cesar,El Copey,El Copey,10.148976,-73.960233
Colombia-Cesar-El_Paso,city,Colombia,Cesar,El Paso,El Paso,9.661436,-73.74643000000002
Colombia-Cesar-Gamarra,city,Colombia,Cesar,Gamarra,Gamarra,8.319315999999999,-73.743937
Colombia-Cesar-Gonzalez,city,Colombia,Cesar,Gonzalez,Gonzalez,8.390105,-73.380115
Colombia-Cesar-La_Gloria,city,Colombia,Cesar,La Gloria,La Gloria,8.617977,-73.802042
Colombia-Cesar-La_Jagua_De_Ibirico,city,Colombia,Cesar,La Jagua De Ibirico,La Jagua De Ibirico,9.560892299999999,-73.3384471
Colombia-Cesar-Manaure,city,Colombia,Cesar,Manaure,Manaure,11.772778,-72.444227
Colombia-Cesar-Pailitas,city,Colombia,Cesar,Pailitas,Pailitas,8.959667,-73.626268
Colombia-Cesar-Pelaya,city,Colombia,Cesar,Pelaya,Pelaya,8.688030999999999,-73.666377
Colombia-Cesar-Pueblo_Bello,city,Colombia,Cesar,Pueblo Bello,Pueblo Bello,10.40873,-73.59139990000001
Colombia-Cesar-Rio_De_Oro,city,Colombia,Cesar,Rio De Oro,Rio De Oro,8.294267,-73.387468
Colombia-Cesar-La_Paz,city,Colombia,Cesar,La Paz,La Paz,6.189809899999999,-73.57585
Colombia-Cesar-San_Alberto,city,Colombia,Cesar,San Alberto,San Alberto,7.761063000000001,-73.39361699999999
Colombia-Cesar-San_Diego,city,Colombia,Cesar,San Diego,San Diego,10.333974,-73.180718
Colombia-Cesar-San_Martin,city,Colombia,Cesar,San Martin,San Martin,3.698492,-73.697308
Colombia-Cesar-Tamalameque,city,Colombia,Cesar,Tamalameque,Tamalameque,8.861748,-73.810756
Colombia-Cordoba-Monteria,city,Colombia,Cordoba,Monteria,Monteria,8.750983,-75.8785348
Colombia-Cordoba-Ayapel,city,Colombia,Cordoba,Ayapel,Ayapel,8.3092849,-75.140264
Colombia-Cordoba-Buenavista,city,Colombia,Cordoba,Buenavista,Buenavista,4.358752,-75.740163
Colombia-Cordoba-Canalete,city,Colombia,Cordoba,Canalete,Canalete,8.788160999999999,-76.240381
Colombia-Cordoba-Cerete,city,Colombia,Cordoba,Cerete,Cerete,8.888785,-75.789633
Colombia-Cordoba-Chima,city,Colombia,Cordoba,Chima,Chima,6.34469,-73.37442
Colombia-Cordoba-Chinu,city,Colombia,Cordoba,Chinu,Chinu,9.105964,-75.401527
Colombia-Cordoba-Cienaga_De_Oro,city,Colombia,Cordoba,Cienaga De Oro,Cienaga De Oro,8.879215,-75.621332
Colombia-Cordoba-Cotorra,city,Colombia,Cordoba,Cotorra,Cotorra,9.039263,-75.790511
Colombia-Cordoba-La_Apartada,city,Colombia,Cordoba,La Apartada,La Apartada,8.048048999999999,-75.33410099999999
Colombia-Cordoba-Lorica,city,Colombia,Cordoba,Lorica,Lorica,9.2376398,-75.81362450000002
Colombia-Cordoba-Los_Cordobas,city,Colombia,Cordoba,Los Cordobas,Los Cordobas,8.89508,-76.35459
Colombia-Cordoba-Momil,city,Colombia,Cordoba,Momil,Momil,9.239504,-75.6767349
Colombia-Cordoba-Montelibano,city,Colombia,Cordoba,Montelibano,Montelibano,7.976803,-75.417209
Colombia-Cordoba-Monitos,city,Colombia,Cordoba,Monitos,Monitos,9.246772,-76.13078399999999
Colombia-Cordoba-Planeta_Rica,city,Colombia,Cordoba,Planeta Rica,Planeta Rica,8.412749,-75.584048
Colombia-Cordoba-Pueblo_Nuevo,city,Colombia,Cordoba,Pueblo Nuevo,Pueblo Nuevo,8.50502,-75.507409
Colombia-Cordoba-Puerto_Escondido,city,Colombia,Cordoba,Puerto Escondido,Puerto Escondido,9.008341,-76.261398
Colombia-Cordoba-Puerto_Libertador,city,Colombia,Cordoba,Puerto Libertador,Puerto Libertador,7.887951999999999,-75.67094399999999
Colombia-Cordoba-Purisima,city,Colombia,Cordoba,Purisima,Purisima,9.236872,-75.723394
Colombia-Cordoba-Sahagun,city,Colombia,Cordoba,Sahagun,Sahagun,8.950643,-75.44600100000001
Colombia-Cordoba-San_Andres_Sotavento,city,Colombia,Cordoba,San Andres Sotavento,San Andres Sotavento,9.146742999999999,-75.509017
Colombia-Cordoba-San_Antero,city,Colombia,Cordoba,San Antero,San Antero,9.374642,-75.758517
Colombia-Cordoba-San_Bernardo_Del_Viento,city,Colombia,Cordoba,San Bernardo Del Viento,San Bernardo Del Viento,9.3525858,-75.9535815
Colombia-Cordoba-San_Carlos,city,Colombia,Cordoba,San Carlos,San Carlos,6.187979,-74.99322699999999
Colombia-Cordoba-San_Jose_De_Ure,city,Colombia,Cordoba,San Jose De Ure,San Jose De Ure,7.787444000000001,-75.535839
Colombia-Cordoba-San_Pelayo,city,Colombia,Cordoba,San Pelayo,San Pelayo,8.959441900000002,-75.8369139
Colombia-Cordoba-Tierralta,city,Colombia,Cordoba,Tierralta,Tierralta,8.171571,-76.062313
Colombia-Cordoba-Tuchin,city,Colombia,Cordoba,Tuchin,Tuchin,9.18719,-75.55416
Colombia-Cordoba-Valencia,city,Colombia,Cordoba,Valencia,Valencia,8.2567869,-76.147936
Colombia-Cundinamarca-Agua_De_Dios,city,Colombia,Cundinamarca,Agua De Dios,Agua De Dios,4.376688,-74.6698
Colombia-Cundinamarca-Alban,city,Colombia,Cundinamarca,Alban,Alban,4.876247999999999,-74.437772
Colombia-Cundinamarca-Anapoima,city,Colombia,Cundinamarca,Anapoima,Anapoima,4.548941999999999,-74.535235
Colombia-Cundinamarca-Anolaima,city,Colombia,Cundinamarca,Anolaima,Anolaima,4.761737999999999,-74.464018
Colombia-Cundinamarca-Arbelaez,city,Colombia,Cundinamarca,Arbelaez,Arbelaez,4.272793,-74.41601399999999
Colombia-Cundinamarca-Beltran,city,Colombia,Cundinamarca,Beltran,Beltran,4.800984,-74.740943
Colombia-Cundinamarca-Bituima,city,Colombia,Cundinamarca,Bituima,Bituima,4.87282,-74.53981999999999
Colombia-Cundinamarca-Bojaca,city,Colombia,Cundinamarca,Bojaca,Bojaca,4.732618,-74.341776
Colombia-Cundinamarca-Cabrera,city,Colombia,Cundinamarca,Cabrera,Cabrera,3.98479,-74.48418099999999
Colombia-Cundinamarca-Cachipay,city,Colombia,Cundinamarca,Cachipay,Cachipay,5.26674,-74.56672
Colombia-Cundinamarca-Cajica,city,Colombia,Cundinamarca,Cajica,Cajica,4.917530999999999,-74.024773
Colombia-Cundinamarca-Caparrapi,city,Colombia,Cundinamarca,Caparrapi,Caparrapi,5.345645,-74.49081
Colombia-Cundinamarca-Caqueza,city,Colombia,Cundinamarca,Caqueza,Caqueza,4.4056369,-73.946686
Colombia-Cundinamarca-Carmen_De_Carupa,city,Colombia,Cundinamarca,Carmen De Carupa,Carmen De Carupa,5.349094,-73.901353
Colombia-Cundinamarca-Chaguani,city,Colombia,Cundinamarca,Chaguani,Chaguani,4.949600999999999,-74.593836
Colombia-Cundinamarca-Chia,city,Colombia,Cundinamarca,Chia,Chia,4.8615787,-74.0325368
Colombia-Cundinamarca-Chipaque,city,Colombia,Cundinamarca,Chipaque,Chipaque,4.4431839,-74.045
Colombia-Cundinamarca-Choachi,city,Colombia,Cundinamarca,Choachi,Choachi,4.528659,-73.922968
Colombia-Cundinamarca-Choconta,city,Colombia,Cundinamarca,Choconta,Choconta,5.1473639,-73.685875
Colombia-Cundinamarca-Cogua,city,Colombia,Cundinamarca,Cogua,Cogua,5.061241,-73.97640799999999
Colombia-Cundinamarca-Cota,city,Colombia,Cundinamarca,Cota,Cota,4.809271,-74.10312100000002
Colombia-Cundinamarca-Cucunuba,city,Colombia,Cundinamarca,Cucunuba,Cucunuba,5.250513000000001,-73.766863
Colombia-Cundinamarca-El_Colegio,city,Colombia,Cundinamarca,El Colegio,El Colegio,4.58473,-74.94942
Colombia-Cundinamarca-El_Penon,city,Colombia,Cundinamarca,El Penon,El Penon,6.223611,-75.178333
Colombia-Cundinamarca-El_Rosal,city,Colombia,Cundinamarca,El Rosal,El Rosal,4.852250000000001,-74.26482399999999
Colombia-Cundinamarca-Facatativa,city,Colombia,Cundinamarca,Facatativa,Facatativa,4.809984,-74.35400899999999
Colombia-Cundinamarca-Fomeque,city,Colombia,Cundinamarca,Fomeque,Fomeque,4.486748,-73.895359
Colombia-Cundinamarca-Fosca,city,Colombia,Cundinamarca,Fosca,Fosca,4.338952,-73.938919
Colombia-Cundinamarca-Funza,city,Colombia,Cundinamarca,Funza,Funza,4.717029,-74.21225
Colombia-Cundinamarca-Fuquene,city,Colombia,Cundinamarca,Fuquene,Fuquene,5.403917,-73.79557199999999
Colombia-Cundinamarca-Fusagasuga,city,Colombia,Cundinamarca,Fusagasuga,Fusagasuga,4.345152,-74.361823
Colombia-Cundinamarca-Gachala,city,Colombia,Cundinamarca,Gachala,Gachala,4.693039,-73.51997
Colombia-Cundinamarca-Gachancipa,city,Colombia,Cundinamarca,Gachancipa,Gachancipa,4.9918699,-73.87075999999999
Colombia-Cundinamarca-Gacheta,city,Colombia,Cundinamarca,Gacheta,Gacheta,4.816972,-73.63630599999999
Colombia-Cundinamarca-Gama,city,Colombia,Cundinamarca,Gama,Gama,4.762033,-73.610321
Colombia-Cundinamarca-Girardot,city,Colombia,Cundinamarca,Girardot,Girardot,4.3045959,-74.8031414
Colombia-Cundinamarca-Granada,city,Colombia,Cundinamarca,Granada,Granada,3.544831,-73.705281
Colombia-Cundinamarca-Guacheta,city,Colombia,Cundinamarca,Guacheta,Guacheta,5.383674999999999,-73.686939
Colombia-Cundinamarca-Guaduas,city,Colombia,Cundinamarca,Guaduas,Guaduas,5.067291,-74.595361
Colombia-Cundinamarca-Guasca,city,Colombia,Cundinamarca,Guasca,Guasca,4.867236,-73.877402
Colombia-Cundinamarca-Guataqui,city,Colombia,Cundinamarca,Guataqui,Guataqui,4.517444,-74.790311
Colombia-Cundinamarca-Guatavita,city,Colombia,Cundinamarca,Guatavita,Guatavita,4.934487,-73.83364399999999
Colombia-Cundinamarca-Guayabal_De_Siquima,city,Colombia,Cundinamarca,Guayabal De Siquima,Guayabal De Siquima,4.878323,-74.467283
Colombia-Cundinamarca-Guayabetal,city,Colombia,Cundinamarca,Guayabetal,Guayabetal,4.2157,-73.81475999999999
Colombia-Cundinamarca-Gutierrez,city,Colombia,Cundinamarca,Gutierrez,Gutierrez,4.255066,-74.00276699999999
Colombia-Cundinamarca-Jerusalen,city,Colombia,Cundinamarca,Jerusalen,Jerusalen,4.563292,-74.693204
Colombia-Cundinamarca-Junin,city,Colombia,Cundinamarca,Junin,Junin,4.791028,-73.663027
Colombia-Cundinamarca-La_Calera,city,Colombia,Cundinamarca,La Calera,La Calera,4.720521,-73.968631
Colombia-Cundinamarca-La_Mesa,city,Colombia,Cundinamarca,La Mesa,La Mesa,4.632147,-74.46301400000002
Colombia-Cundinamarca-La_Palma,city,Colombia,Cundinamarca,La Palma,La Palma,5.358433,-74.390683
Colombia-Cundinamarca-La_Pena,city,Colombia,Cundinamarca,La Pena,La Pena,5.200607799999999,-74.39320090000001
Colombia-Cundinamarca-La_Vega,city,Colombia,Cundinamarca,La Vega,La Vega,5.000528,-74.339439
Colombia-Cundinamarca-Lenguazaque,city,Colombia,Cundinamarca,Lenguazaque,Lenguazaque,5.3068989,-73.711727
Colombia-Cundinamarca-Macheta,city,Colombia,Cundinamarca,Macheta,Macheta,5.081005999999999,-73.608052
Colombia-Cundinamarca-Madrid,city,Colombia,Cundinamarca,Madrid,Madrid,4.733779,-74.2627569
Colombia-Cundinamarca-Manta,city,Colombia,Cundinamarca,Manta,Manta,5.009443999999999,-73.539987
Colombia-Cundinamarca-Medina,city,Colombia,Cundinamarca,Medina,Medina,4.508399,-73.349853
Colombia-Cundinamarca-Mosquera,city,Colombia,Cundinamarca,Mosquera,Mosquera,4.706035,-74.23010099999999
Colombia-Cundinamarca-Narino,city,Colombia,Cundinamarca,Narino,Narino,1.289151,-77.35794000000001
Colombia-Cundinamarca-Nemocon,city,Colombia,Cundinamarca,Nemocon,Nemocon,5.066968999999999,-73.880696
Colombia-Cundinamarca-Nilo,city,Colombia,Cundinamarca,Nilo,Nilo,4.307339,-74.619935
Colombia-Cundinamarca-Nimaima,city,Colombia,Cundinamarca,Nimaima,Nimaima,5.12645,-74.38555
Colombia-Cundinamarca-Nocaima,city,Colombia,Cundinamarca,Nocaima,Nocaima,5.069434999999999,-74.38030499999999
Colombia-Cundinamarca-Venecia,city,Colombia,Cundinamarca,Venecia,Venecia,5.963962,-75.735417
Colombia-Cundinamarca-Pacho,city,Colombia,Cundinamarca,Pacho,Pacho,5.137918,-74.152868
Colombia-Cundinamarca-Paime,city,Colombia,Cundinamarca,Paime,Paime,5.370625,-74.152796
Colombia-Cundinamarca-Pandi,city,Colombia,Cundinamarca,Pandi,Pandi,4.19065,-74.486751
Colombia-Cundinamarca-Paratebueno,city,Colombia,Cundinamarca,Paratebueno,Paratebueno,4.376587,-73.209608
Colombia-Cundinamarca-Pasca,city,Colombia,Cundinamarca,Pasca,Pasca,4.308498,-74.299995
Colombia-Cundinamarca-Puerto_Salgar,city,Colombia,Cundinamarca,Puerto Salgar,Puerto Salgar,5.467414,-74.652693
Colombia-Cundinamarca-Puli,city,Colombia,Cundinamarca,Puli,Puli,4.6825979,-74.713599
Colombia-Cundinamarca-Quebradanegra,city,Colombia,Cundinamarca,Quebradanegra,Quebradanegra,5.117721,-74.479244
Colombia-Cundinamarca-Quetame,city,Colombia,Cundinamarca,Quetame,Quetame,4.32998,-73.86318299999999
Colombia-Cundinamarca-Quipile,city,Colombia,Cundinamarca,Quipile,Quipile,4.74257,-74.56210999999999
Colombia-Cundinamarca-Apulo,city,Colombia,Cundinamarca,Apulo,Apulo,4.521301999999999,-74.593706
Colombia-Cundinamarca-Rafael_Reyes_Apulo,city,Colombia,Cundinamarca,Rafael Reyes Apulo,Rafael Reyes Apulo,4.52055,-74.5938199
Colombia-Cundinamarca-Ricaurte,city,Colombia,Cundinamarca,Ricaurte,Ricaurte,4.277309,-74.77230500000002
Colombia-Cundinamarca-San_Antonio_Del_Tequendama,city,Colombia,Cundinamarca,San Antonio Del Tequendama,San Antonio Del Tequendama,4.6162489,-74.35214909999999
Colombia-Cundinamarca-San_Bernardo,city,Colombia,Cundinamarca,San Bernardo,San Bernardo,9.7197222,-75.78277779999999
Colombia-Cundinamarca-San_Cayetano,city,Colombia,Cundinamarca,San Cayetano,San Cayetano,5.301222,-74.06970199999999
Colombia-Cundinamarca-San_Francisco,city,Colombia,Cundinamarca,San Francisco,San Francisco,4.974252,-74.291386
Colombia-Cundinamarca-San_Juan_De_Rio_Seco,city,Colombia,Cundinamarca,San Juan De Rio Seco,San Juan De Rio Seco,4.846890999999999,-74.622303
Colombia-Cundinamarca-Sasaima,city,Colombia,Cundinamarca,Sasaima,Sasaima,4.963945000000001,-74.43404199999999
Colombia-Cundinamarca-Sesquile,city,Colombia,Cundinamarca,Sesquile,Sesquile,5.045268,-73.796925
Colombia-Cundinamarca-Sibate,city,Colombia,Cundinamarca,Sibate,Sibate,4.485011,-74.259334
Colombia-Cundinamarca-Silvania,city,Colombia,Cundinamarca,Silvania,Silvania,4.390779999999999,-74.396782
Colombia-Cundinamarca-Simijaca,city,Colombia,Cundinamarca,Simijaca,Simijaca,5.503838,-73.85197099999999
Colombia-Cundinamarca-Soacha,city,Colombia,Cundinamarca,Soacha,Soacha,4.5827227,-74.21174649999999
Colombia-Cundinamarca-Sopo,city,Colombia,Cundinamarca,Sopo,Sopo,4.908732,-73.9410709
Colombia-Cundinamarca-Subachoque,city,Colombia,Cundinamarca,Subachoque,Subachoque,4.929001,-74.172465
Colombia-Cundinamarca-Suesca,city,Colombia,Cundinamarca,Suesca,Suesca,5.103929,-73.798632
Colombia-Cundinamarca-Supata,city,Colombia,Cundinamarca,Supata,Supata,5.061607,-74.235546
Colombia-Cundinamarca-Susa,city,Colombia,Cundinamarca,Susa,Susa,5.455099,-73.814707
Colombia-Cundinamarca-Sutatausa,city,Colombia,Cundinamarca,Sutatausa,Sutatausa,5.247294999999999,-73.852667
Colombia-Cundinamarca-Tabio,city,Colombia,Cundinamarca,Tabio,Tabio,4.916962,-74.096358
Colombia-Cundinamarca-Tausa,city,Colombia,Cundinamarca,Tausa,Tausa,5.196181999999999,-73.8865409
Colombia-Cundinamarca-Tena,city,Colombia,Cundinamarca,Tena,Tena,4.655622999999999,-74.38957599999999
Colombia-Cundinamarca-Tenjo,city,Colombia,Cundinamarca,Tenjo,Tenjo,4.871884,-74.145663
Colombia-Cundinamarca-Tibacuy,city,Colombia,Cundinamarca,Tibacuy,Tibacuy,4.347837,-74.45254
Colombia-Cundinamarca-Tibirita,city,Colombia,Cundinamarca,Tibirita,Tibirita,5.052433,-73.5046459
Colombia-Cundinamarca-Tocaima,city,Colombia,Cundinamarca,Tocaima,Tocaima,4.457055,-74.633923
Colombia-Cundinamarca-Tocancipa,city,Colombia,Cundinamarca,Tocancipa,Tocancipa,4.965002,-73.9108229
Colombia-Cundinamarca-Topaipi,city,Colombia,Cundinamarca,Topaipi,Topaipi,5.335775000000001,-74.301474
Colombia-Cundinamarca-Ubala,city,Colombia,Cundinamarca,Ubala,Ubala,4.743647,-73.534989
Colombia-Cundinamarca-Ubaque,city,Colombia,Cundinamarca,Ubaque,Ubaque,4.482842,-73.93468
Colombia-Cundinamarca-Villa_De_San_Diego_De_Ubate,city,Colombia,Cundinamarca,Villa De San Diego De Ubate,Villa De San Diego De Ubate,5.312024,-73.81822199999999
Colombia-Cundinamarca-Une,city,Colombia,Cundinamarca,Une,Une,4.402585,-74.025384
Colombia-Cundinamarca-Utica,city,Colombia,Cundinamarca,Utica,Utica,5.187784,-74.48145699999999
Colombia-Cundinamarca-Vergara,city,Colombia,Cundinamarca,Vergara,Vergara,5.118232,-74.34495299999999
Colombia-Cundinamarca-Viani,city,Colombia,Cundinamarca,Viani,Viani,4.875749,-74.56051699999999
Colombia-Cundinamarca-Villagomez,city,Colombia,Cundinamarca,Villagomez,Villagomez,5.2733,-74.19516899999999
Colombia-Cundinamarca-Villapinzon,city,Colombia,Cundinamarca,Villapinzon,Villapinzon,5.215209,-73.5946249
Colombia-Cundinamarca-Villeta,city,Colombia,Cundinamarca,Villeta,Villeta,5.011706,-74.470362
Colombia-Cundinamarca-Viota,city,Colombia,Cundinamarca,Viota,Viota,4.438829,-74.52239399999999
Colombia-Cundinamarca-Yacopi,city,Colombia,Cundinamarca,Yacopi,Yacopi,5.460014,-74.33852399999999
Colombia-Cundinamarca-Zipacon,city,Colombia,Cundinamarca,Zipacon,Zipacon,4.759634,-74.38004900000001
Colombia-Cundinamarca-Zipaquira,city,Colombia,Cundinamarca,Zipaquira,Zipaquira,5.021476,-73.990955
Colombia-Choco-Quibdo,city,Colombia,Choco,Quibdo,Quibdo,5.695633,-76.649812
Colombia-Choco-Acandi,city,Colombia,Choco,Acandi,Acandi,8.510109,-77.27897999999999
Colombia-Choco-Alto_Baudo,city,Colombia,Choco,Alto Baudo,Alto Baudo,5.516347,-76.974502
Colombia-Choco-Atrato,city,Colombia,Choco,Atrato,Atrato,10.0666499,-74.20003
Colombia-Choco-Bagado,city,Colombia,Choco,Bagado,Bagado,5.41139,-76.416372
Colombia-Choco-Bahia_Solano,city,Colombia,Choco,Bahia Solano,Bahia Solano,6.222551999999999,-77.40115399999999
Colombia-Choco-Bajo_Baudo,city,Colombia,Choco,Bajo Baudo,Bajo Baudo,5.3442678,-77.2864879
Colombia-Choco-Belen_De_Bajira,city,Colombia,Choco,Belen De Bajira,Belen De Bajira,7.371378,-76.714705
Colombia-Choco-Bojaya,city,Colombia,Choco,Bojaya,Bojaya,6.4971459,-77.10249019999999
Colombia-Choco-El_Canton_Del_San_Pablo,city,Colombia,Choco,El Canton Del San Pablo,El Canton Del San Pablo,5.33893,-76.73137
Colombia-Choco-Carmen_Del_Darien,city,Colombia,Choco,Carmen Del Darien,Carmen Del Darien,5.6881992,-76.6513374
Colombia-Choco-Certegui,city,Colombia,Choco,Certegui,Certegui,5.40004,-76.60002999999999
Colombia-Choco-Condoto,city,Colombia,Choco,Condoto,Condoto,5.089545999999999,-76.652079
Colombia-Choco-El_Carmen_De_Atrato,city,Colombia,Choco,El Carmen De Atrato,El Carmen De Atrato,5.900621,-76.14219899999999
Colombia-Choco-El_Litoral_Del_San_Juan,city,Colombia,Choco,El Litoral Del San Juan,El Litoral Del San Juan,4.2006777,-76.7336521
Colombia-Choco-Istmina,city,Colombia,Choco,Istmina,Istmina,5.157788,-76.68754
Colombia-Choco-Jurado,city,Colombia,Choco,Jurado,Jurado,7.102626,-77.762046
Colombia-Choco-Lloro,city,Colombia,Choco,Lloro,Lloro,5.504209899999999,-76.53144999999999
Colombia-Choco-Medio_Atrato,city,Colombia,Choco,Medio Atrato,Medio Atrato,5.989716400000001,-76.7336521
Colombia-Choco-Medio_Baudo,city,Colombia,Choco,Medio Baudo,Medio Baudo,5.1334095,-76.964306
Colombia-Choco-Medio_San_Juan,city,Colombia,Choco,Medio San Juan,Medio San Juan,4.570868,-74.297333
Colombia-Choco-Novita,city,Colombia,Choco,Novita,Novita,4.956167,-76.60734900000001
Colombia-Choco-Nuqui,city,Colombia,Choco,Nuqui,Nuqui,5.709563,-77.2666969
Colombia-Choco-Rio_Iro,city,Colombia,Choco,Rio Iro,Rio Iro,5.129023,-76.6181398
Colombia-Choco-Rio_Quito,city,Colombia,Choco,Rio Quito,Rio Quito,5.5380856,-76.7798172
Colombia-Choco-Riosucio,city,Colombia,Choco,Riosucio,Riosucio,5.420683899999999,-75.705388
Colombia-Choco-San_Jose_Del_Palmar,city,Colombia,Choco,San Jose Del Palmar,San Jose Del Palmar,4.97262,-76.22922
Colombia-Choco-Sipi,city,Colombia,Choco,Sipi,Sipi,4.65306,-76.64417
Colombia-Choco-Tado,city,Colombia,Choco,Tado,Tado,5.2649419,-76.55943300000001
Colombia-Choco-Unguia,city,Colombia,Choco,Unguia,Unguia,8.04668,-77.093232
Colombia-Choco-Union_Panamericana,city,Colombia,Choco,Union Panamericana,Union Panamericana,5.30648,-76.64542999999999
Colombia-Huila-Neiva,city,Colombia,Huila,Neiva,Neiva,2.9344837,-75.2809001
Colombia-Huila-Acevedo,city,Colombia,Huila,Acevedo,Acevedo,1.805165,-75.88834
Colombia-Huila-Agrado,city,Colombia,Huila,Agrado,Agrado,2.260441,-75.7714139
Colombia-Huila-Aipe,city,Colombia,Huila,Aipe,Aipe,3.222095,-75.241066
Colombia-Huila-Algeciras,city,Colombia,Huila,Algeciras,Algeciras,2.523477,-75.3156939
Colombia-Huila-Altamira,city,Colombia,Huila,Altamira,Altamira,2.063112,-75.787545
Colombia-Huila-Baraya,city,Colombia,Huila,Baraya,Baraya,3.151685,-75.054209
Colombia-Huila-Campoalegre,city,Colombia,Huila,Campoalegre,Campoalegre,2.6851058,-75.3266416
Colombia-Huila-Colombia,city,Colombia,Huila,Colombia,Colombia,4.570868,-74.297333
Colombia-Huila-Elias,city,Colombia,Huila,Elias,Elias,2.013818,-75.9373449
Colombia-Huila-Garzon,city,Colombia,Huila,Garzon,Garzon,2.195403,-75.6274679
Colombia-Huila-Gigante,city,Colombia,Huila,Gigante,Gigante,2.384507,-75.54288799999999
Colombia-Huila-Guadalupe,city,Colombia,Huila,Guadalupe,Guadalupe,6.246048999999999,-73.418739
Colombia-Huila-Hobo,city,Colombia,Huila,Hobo,Hobo,2.582523,-75.4498009
Colombia-Huila-Iquira,city,Colombia,Huila,Iquira,Iquira,2.649516,-75.635076
Colombia-Huila-Isnos,city,Colombia,Huila,Isnos,Isnos,1.932389,-76.214046
Colombia-Huila-La_Argentina,city,Colombia,Huila,La Argentina,La Argentina,2.198444,-75.978781
Colombia-Huila-La_Plata,city,Colombia,Huila,La Plata,La Plata,2.389011,-75.8942469
Colombia-Huila-Nataga,city,Colombia,Huila,Nataga,Nataga,2.546186,-75.80924499999999
Colombia-Huila-Oporapa,city,Colombia,Huila,Oporapa,Oporapa,2.0259109,-75.99496400000001
Colombia-Huila-Paicol,city,Colombia,Huila,Paicol,Paicol,2.449478,-75.77291699999999
Colombia-Huila-Palermo,city,Colombia,Huila,Palermo,Palermo,2.886246,-75.433419
Colombia-Huila-Palestina,city,Colombia,Huila,Palestina,Palestina,5.02022,-75.62281
Colombia-Huila-Pital,city,Colombia,Huila,Pital,Pital,2.266733,-75.803848
Colombia-Huila-Pitalito,city,Colombia,Huila,Pitalito,Pitalito,1.85298,-76.048869
Colombia-Huila-Rivera,city,Colombia,Huila,Rivera,Rivera,2.777781,-75.2594359
Colombia-Huila-Saladoblanco,city,Colombia,Huila,Saladoblanco,Saladoblanco,1.993097,-76.04361399999999
Colombia-Huila-San_Agustin,city,Colombia,Huila,San Agustin,San Agustin,1.879826,-76.270749
Colombia-Huila-Santa_Maria,city,Colombia,Huila,Santa Maria,Santa Maria,11.2403547,-74.2110227
Colombia-Huila-Suaza,city,Colombia,Huila,Suaza,Suaza,1.97688,-75.79497099999999
Colombia-Huila-Tarqui,city,Colombia,Huila,Tarqui,Tarqui,2.112437,-75.823483
Colombia-Huila-Tesalia,city,Colombia,Huila,Tesalia,Tesalia,2.485427,-75.727318
Colombia-Huila-Tello,city,Colombia,Huila,Tello,Tello,3.0673499,-75.1381059
Colombia-Huila-Teruel,city,Colombia,Huila,Teruel,Teruel,2.741117,-75.56850299999999
Colombia-Huila-Timana,city,Colombia,Huila,Timana,Timana,1.974415,-75.932847
Colombia-Huila-Villavieja,city,Colombia,Huila,Villavieja,Villavieja,3.218357,-75.21755999999999
Colombia-Huila-Yaguara,city,Colombia,Huila,Yaguara,Yaguara,2.664454000000001,-75.518334
Colombia-Guajira-Riohacha,city,Colombia,Guajira,Riohacha,Riohacha,11.5384151,-72.91678379999999
Colombia-Guajira-Albania,city,Colombia,Guajira,Albania,Albania,11.160651,-72.59190699999999
Colombia-Guajira-Barrancas,city,Colombia,Guajira,Barrancas,Barrancas,10.9556419,-72.795543
Colombia-Guajira-Dibulla,city,Colombia,Guajira,Dibulla,Dibulla,11.272426,-73.30933700000001
Colombia-Guajira-Distraccion,city,Colombia,Guajira,Distraccion,Distraccion,10.89732,-72.88412
Colombia-Guajira-El_Molino,city,Colombia,Guajira,El Molino,El Molino,10.6524699,-72.92527
Colombia-Guajira-Fonseca,city,Colombia,Guajira,Fonseca,Fonseca,10.886123,-72.85151499999999
Colombia-Guajira-Hatonuevo,city,Colombia,Guajira,Hatonuevo,Hatonuevo,11.066345,-72.762546
Colombia-Guajira-La_Jagua_Del_Pilar,city,Colombia,Guajira,La Jagua Del Pilar,La Jagua Del Pilar,10.5089602,-73.0715178
Colombia-Guajira-Maicao,city,Colombia,Guajira,Maicao,Maicao,11.3789335,-72.2485171
Colombia-Guajira-Manaure,city,Colombia,Guajira,Manaure,Manaure,11.772778,-72.444227
Colombia-Guajira-San_Juan_Del_Cesar,city,Colombia,Guajira,San Juan Del Cesar,San Juan Del Cesar,10.7698637,-73.0021534
Colombia-Guajira-Uribia,city,Colombia,Guajira,Uribia,Uribia,11.7149978,-72.26593910000001
Colombia-Guajira-Urumita,city,Colombia,Guajira,Urumita,Urumita,10.559313,-73.013282
Colombia-Guajira-Villanueva,city,Colombia,Guajira,Villanueva,Villanueva,10.603721,-72.98193599999999
Colombia-Sta_Marta_DE-Santa_Marta,city,Colombia,Sta Marta DE,Santa Marta,Santa Marta,11.2403547,-74.2110227
Colombia-Magdalena-Sitio_Nuevo,city,Colombia,Magdalena,Sitio Nuevo,Sitio Nuevo,10.77525,-74.71955
Colombia-Magdalena-Algarrobo,city,Colombia,Magdalena,Algarrobo,Algarrobo,10.10004,-74.26662999999999
Colombia-Magdalena-Aracataca,city,Colombia,Magdalena,Aracataca,Aracataca,10.591925,-74.186103
Colombia-Magdalena-Ariguani,city,Colombia,Magdalena,Ariguani,Ariguani,9.844197,-74.22811899999999
Colombia-Magdalena-Cerro_San_Antonio,city,Colombia,Magdalena,Cerro San Antonio,Cerro San Antonio,10.327095,-74.868681
Colombia-Magdalena-Chibolo,city,Colombia,Magdalena,Chibolo,Chibolo,10.02812,-74.62157499999999
Colombia-Magdalena-Cienaga,city,Colombia,Magdalena,Cienaga,Cienaga,11.007984,-74.248926
Colombia-Magdalena-Concordia,city,Colombia,Magdalena,Concordia,Concordia,6.044979,-75.908354
Colombia-Magdalena-El_Banco,city,Colombia,Magdalena,El Banco,El Banco,9.003506999999999,-73.97386399999999
Colombia-Magdalena-El_Pinon,city,Colombia,Magdalena,El Pinon,El Pinon,10.404038,-74.823769
Colombia-Magdalena-El_Reten,city,Colombia,Magdalena,El Reten,El Reten,10.611793,-74.26938299999999
Colombia-Magdalena-Fundacion,city,Colombia,Magdalena,Fundacion,Fundacion,10.517179,-74.1819979
Colombia-Magdalena-Guamal,city,Colombia,Magdalena,Guamal,Guamal,9.144527,-74.22629400000001
Colombia-Magdalena-Nueva_Granada,city,Colombia,Magdalena,Nueva Granada,Nueva Granada,9.805783,-74.392253
Colombia-Magdalena-Pedraza,city,Colombia,Magdalena,Pedraza,Pedraza,10.1884029,-74.916397
Colombia-Magdalena-Pijino_Del_Carmen,city,Colombia,Magdalena,Pijino Del Carmen,Pijino Del Carmen,9.3302391,-74.4532954
Colombia-Magdalena-Pivijay,city,Colombia,Magdalena,Pivijay,Pivijay,10.461181,-74.614654
Colombia-Magdalena-Plato,city,Colombia,Magdalena,Plato,Plato,9.791337,-74.7975249
Colombia-Magdalena-Puebloviejo,city,Colombia,Magdalena,Puebloviejo,Puebloviejo,10.992353,-74.284038
Colombia-Magdalena-Remolino,city,Colombia,Magdalena,Remolino,Remolino,10.701732,-74.7163829
Colombia-Magdalena-Sabanas_De_San_Angel,city,Colombia,Magdalena,Sabanas De San Angel,Sabanas De San Angel,10.0297699,-74.21531
Colombia-Magdalena-Salamina,city,Colombia,Magdalena,Salamina,Salamina,5.402354,-75.486468
Colombia-Magdalena-San_Sebastian_De_Buenavista,city,Colombia,Magdalena,San Sebastian De Buenavista,San Sebastian De Buenavista,9.240300999999999,-74.351193
Colombia-Magdalena-San_Zenon,city,Colombia,Magdalena,San Zenon,San Zenon,9.245740999999999,-74.4991189
Colombia-Magdalena-Santa_Ana,city,Colombia,Magdalena,Santa Ana,Santa Ana,9.322961,-74.570544
Colombia-Magdalena-Santa_Barbara_De_Pinto,city,Colombia,Magdalena,Santa Barbara De Pinto,Santa Barbara De Pinto,9.43234,-74.70492999999999
Colombia-Magdalena-Sitionuevo,city,Colombia,Magdalena,Sitionuevo,Sitionuevo,10.77525,-74.71955
Colombia-Magdalena-Tenerife,city,Colombia,Magdalena,Tenerife,Tenerife,9.898413,-74.858425
Colombia-Magdalena-Zapayan,city,Colombia,Magdalena,Zapayan,Zapayan,2.4448143,-76.6147395
Colombia-Magdalena-Zona_Bananera,city,Colombia,Magdalena,Zona Bananera,Zona Bananera,10.7922447,-74.1709702
Colombia-Meta-Villavicencio,city,Colombia,Meta,Villavicencio,Villavicencio,4.1513822,-73.63769049999999
Colombia-Meta-Acacias,city,Colombia,Meta,Acacias,Acacias,3.991663,-73.76612899999999
Colombia-Meta-Barranca_De_Upia,city,Colombia,Meta,Barranca De Upia,Barranca De Upia,4.567588000000001,-72.966577
Colombia-Meta-Cabuyaro,city,Colombia,Meta,Cabuyaro,Cabuyaro,4.284528,-72.7923129
Colombia-Meta-Castilla_La_Nueva,city,Colombia,Meta,Castilla La Nueva,Castilla La Nueva,3.827834,-73.690164
Colombia-Meta-Cubarral,city,Colombia,Meta,Cubarral,Cubarral,3.766667,-73.833333
Colombia-Meta-Cumaral,city,Colombia,Meta,Cumaral,Cumaral,4.271262,-73.48805200000001
Colombia-Meta-El_Calvario,city,Colombia,Meta,El Calvario,El Calvario,4.352332,-73.712966
Colombia-Meta-El_Castillo,city,Colombia,Meta,El Castillo,El Castillo,6.190501900000001,-75.5727914
Colombia-Meta-El_Dorado,city,Colombia,Meta,El Dorado,El Dorado,4.7014128,-74.1444969
Colombia-Meta-Fuente_De_Oro,city,Colombia,Meta,Fuente De Oro,Fuente De Oro,3.462502,-73.619979
Colombia-Meta-Granada,city,Colombia,Meta,Granada,Granada,3.544831,-73.705281
Colombia-Meta-Guamal,city,Colombia,Meta,Guamal,Guamal,9.144527,-74.22629400000001
Colombia-Meta-Mapiripan,city,Colombia,Meta,Mapiripan,Mapiripan,2.892506,-72.13317500000001
Colombia-Meta-Mesetas,city,Colombia,Meta,Mesetas,Mesetas,3.381995,-74.043801
Colombia-Meta-La_Macarena,city,Colombia,Meta,La Macarena,La Macarena,2.181718,-73.78645
Colombia-Meta-Uribe,city,Colombia,Meta,Uribe,Uribe,3.239241,-74.350661
Colombia-Meta-Lejanias,city,Colombia,Meta,Lejanias,Lejanias,3.526086,-74.024393
Colombia-Meta-Puerto_Concordia,city,Colombia,Meta,Puerto Concordia,Puerto Concordia,2.6236449,-72.75623399999999
Colombia-Meta-Puerto_Gaitan,city,Colombia,Meta,Puerto Gaitan,Puerto Gaitan,4.312977,-72.083573
Colombia-Meta-Puerto_Lopez,city,Colombia,Meta,Puerto Lopez,Puerto Lopez,4.091354,-72.955918
Colombia-Meta-Puerto_Lleras,city,Colombia,Meta,Puerto Lleras,Puerto Lleras,3.272414,-73.369542
Colombia-Meta-Puerto_Rico,city,Colombia,Meta,Puerto Rico,Puerto Rico,1.909918,-75.157235
Colombia-Meta-Restrepo,city,Colombia,Meta,Restrepo,Restrepo,3.82172,-76.52047
Colombia-Meta-San_Carlos_De_Guaroa,city,Colombia,Meta,San Carlos De Guaroa,San Carlos De Guaroa,3.710353,-73.24192099999999
Colombia-Meta-San_Juan_De_Arama,city,Colombia,Meta,San Juan De Arama,San Juan De Arama,3.34645,-73.88941
Colombia-Meta-San_Juanito,city,Colombia,Meta,San Juanito,San Juanito,4.457915,-73.6761889
Colombia-Meta-San_Martin,city,Colombia,Meta,San Martin,San Martin,3.698492,-73.697308
Colombia-Meta-Vistahermosa,city,Colombia,Meta,Vistahermosa,Vistahermosa,3.127883,-73.752512
Colombia-Narino-Pasto,city,Colombia,Narino,Pasto,Pasto,1.2058837,-77.285787
Colombia-Narino-Alban,city,Colombia,Narino,Alban,Alban,4.876247999999999,-74.437772
Colombia-Narino-Aldana,city,Colombia,Narino,Aldana,Aldana,0.882544,-77.700425
Colombia-Narino-Ancuya,city,Colombia,Narino,Ancuya,Ancuya,1.26295,-77.515158
Colombia-Narino-Arboleda,city,Colombia,Narino,Arboleda,Arboleda,1.3666799,-77.41669999999999
Colombia-Narino-Barbacoas,city,Colombia,Narino,Barbacoas,Barbacoas,1.67155,-78.14099
Colombia-Narino-Belen,city,Colombia,Narino,Belen,Belen,6.231928,-75.60116719999999
Colombia-Narino-Buesaco,city,Colombia,Narino,Buesaco,Buesaco,1.384512,-77.155676
Colombia-Narino-Colon,city,Colombia,Narino,Colon,Colon,1.190067,-76.97286299999999
Colombia-Narino-Consaca,city,Colombia,Narino,Consaca,Consaca,1.207624,-77.46565799999999
Colombia-Narino-Contadero,city,Colombia,Narino,Contadero,Contadero,0.9109069999999999,-77.549911
Colombia-Narino-Cordoba,city,Colombia,Narino,Cordoba,Cordoba,8.049293,-75.57405
Colombia-Narino-Cuaspud,city,Colombia,Narino,Cuaspud,Cuaspud,0.863262,-77.729755
Colombia-Narino-Cumbal,city,Colombia,Narino,Cumbal,Cumbal,0.904589,-77.791184
Colombia-Narino-Cumbitara,city,Colombia,Narino,Cumbitara,Cumbitara,1.67696,-77.3253
Colombia-Narino-Chachagui,city,Colombia,Narino,Chachagui,Chachagui,1.359869,-77.28284099999999
Colombia-Narino-El_Charco,city,Colombia,Narino,El Charco,El Charco,2.479311,-78.11021099999999
Colombia-Narino-El_Penol,city,Colombia,Narino,El Penol,El Penol,6.2199662,-75.2435307
Colombia-Narino-El_Rosario,city,Colombia,Narino,El Rosario,El Rosario,1.74307,-77.335095
Colombia-Narino-El_Tablon_De_Gomez,city,Colombia,Narino,El Tablon De Gomez,El Tablon De Gomez,1.427619,-77.097224
Colombia-Narino-El_Tambo,city,Colombia,Narino,El Tambo,El Tambo,2.452695,-76.81132199999999
Colombia-Narino-Funes,city,Colombia,Narino,Funes,Funes,1.001167,-77.448926
Colombia-Narino-Guachucal,city,Colombia,Narino,Guachucal,Guachucal,0.9600719999999999,-77.731133
Colombia-Narino-Guaitarilla,city,Colombia,Narino,Guaitarilla,Guaitarilla,1.130349,-77.550994
Colombia-Narino-Gualmatan,city,Colombia,Narino,Gualmatan,Gualmatan,0.9196449999999999,-77.567138
Colombia-Narino-Iles,city,Colombia,Narino,Iles,Iles,0.9689110000000001,-77.521175
Colombia-Narino-Imues,city,Colombia,Narino,Imues,Imues,1.054949,-77.49643499999999
Colombia-Narino-Ipiales,city,Colombia,Narino,Ipiales,Ipiales,0.825542,-77.639504
Colombia-Narino-La_Cruz,city,Colombia,Narino,La Cruz,La Cruz,1.600678,-76.971119
Colombia-Narino-La_Florida,city,Colombia,Narino,La Florida,La Florida,1.298637,-77.40441899999999
Colombia-Narino-La_Llanada,city,Colombia,Narino,La Llanada,La Llanada,1.472852,-77.5798499
Colombia-Narino-La_Tola,city,Colombia,Narino,La Tola,La Tola,2.399572,-78.189712
Colombia-Narino-La_Union,city,Colombia,Narino,La Union,La Union,4.5334899,-76.10361600000002
Colombia-Narino-Leiva,city,Colombia,Narino,Leiva,Leiva,5.636499,-73.527058
Colombia-Narino-Linares,city,Colombia,Narino,Linares,Linares,1.350933,-77.52387000000002
Colombia-Narino-Los_Andes,city,Colombia,Narino,Los Andes,Los Andes,4.6014855,-74.06644570000002
Colombia-Narino-Magsi,city,Colombia,Narino,Magsi,Magsi,4.570868,-74.297333
Colombia-Narino-Mallama,city,Colombia,Narino,Mallama,Mallama,1.140872,-77.8645669
Colombia-Narino-Mosquera,city,Colombia,Narino,Mosquera,Mosquera,4.706035,-74.23010099999999
Colombia-Narino-Narino,city,Colombia,Narino,Narino,Narino,1.289151,-77.35794000000001
Colombia-Narino-Olaya_Herrera,city,Colombia,Narino,Olaya Herrera,Olaya Herrera,2.347,-78.3672799
Colombia-Narino-Ospina,city,Colombia,Narino,Ospina,Ospina,1.0595,-77.56554
Colombia-Narino-Francisco_Pizarro,city,Colombia,Narino,Francisco Pizarro,Francisco Pizarro,2.01292,-78.64453999999999
Colombia-Narino-Policarpa,city,Colombia,Narino,Policarpa,Policarpa,1.628978,-77.4603659
Colombia-Narino-Potosi,city,Colombia,Narino,Potosi,Potosi,0.806982,-77.572656
Colombia-Narino-Providencia,city,Colombia,Narino,Providencia,Providencia,13.3387613,-81.3729372
Colombia-Narino-Puerres,city,Colombia,Narino,Puerres,Puerres,0.8847229999999999,-77.505809
Colombia-Narino-Pupiales,city,Colombia,Narino,Pupiales,Pupiales,0.871676,-77.641002
Colombia-Narino-Ricaurte,city,Colombia,Narino,Ricaurte,Ricaurte,4.277309,-74.77230500000002
Colombia-Narino-Roberto_Payan,city,Colombia,Narino,Roberto Payan,Roberto Payan,1.718516,-78.25312
Colombia-Narino-Samaniego,city,Colombia,Narino,Samaniego,Samaniego,1.332614,-77.58615499999999
Colombia-Narino-Sandona,city,Colombia,Narino,Sandona,Sandona,1.28326,-77.472045
Colombia-Narino-San_Bernardo,city,Colombia,Narino,San Bernardo,San Bernardo,9.7197222,-75.78277779999999
Colombia-Narino-San_Lorenzo,city,Colombia,Narino,San Lorenzo,San Lorenzo,5.464719000000001,-75.69425100000001
Colombia-Narino-San_Pablo,city,Colombia,Narino,San Pablo,San Pablo,7.477887,-73.92410799999999
Colombia-Narino-San_Pedro_De_Cartago,city,Colombia,Narino,San Pedro De Cartago,San Pedro De Cartago,1.552654,-77.12024
Colombia-Narino-Santa_Barbara,city,Colombia,Narino,Santa Barbara,Santa Barbara,5.874249,-75.56642099999999
Colombia-Narino-Santacruz,city,Colombia,Narino,Santacruz,Santacruz,9.785833,-75.859167
Colombia-Narino-Sapuyes,city,Colombia,Narino,Sapuyes,Sapuyes,1.0373969,-77.619427
Colombia-Narino-Taminango,city,Colombia,Narino,Taminango,Taminango,1.57049,-77.280727
Colombia-Narino-Tangua,city,Colombia,Narino,Tangua,Tangua,1.094597,-77.3942409
Colombia-Narino-San_Andres_De_Tumaco,city,Colombia,Narino,San Andres De Tumaco,San Andres De Tumaco,1.787434,-78.791265
Colombia-Narino-Tuquerres,city,Colombia,Narino,Tuquerres,Tuquerres,1.085739,-77.618641
Colombia-Narino-Yacuanquer,city,Colombia,Narino,Yacuanquer,Yacuanquer,1.11567,-77.400055
Colombia-Norte_Santander-Cucuta,city,Colombia,Norte Santander,Cucuta,Cucuta,7.8890971,-72.4966896
Colombia-Norte_Santander-Abrego,city,Colombia,Norte Santander,Abrego,Abrego,8.0837905,-73.222916
Colombia-Norte_Santander-Arboledas,city,Colombia,Norte Santander,Arboledas,Arboledas,7.64323,-72.798862
Colombia-Norte_Santander-Bochalema,city,Colombia,Norte Santander,Bochalema,Bochalema,7.612039,-72.647352
Colombia-Norte_Santander-Bucarasica,city,Colombia,Norte Santander,Bucarasica,Bucarasica,8.04081,-72.8680399
Colombia-Norte_Santander-Cacota,city,Colombia,Norte Santander,Cacota,Cacota,7.268697,-72.642495
Colombia-Norte_Santander-Cachira,city,Colombia,Norte Santander,Cachira,Cachira,7.741865000000001,-73.04854399999999
Colombia-Norte_Santander-Chinacota,city,Colombia,Norte Santander,Chinacota,Chinacota,7.600192999999999,-72.60247
Colombia-Norte_Santander-Chitaga,city,Colombia,Norte Santander,Chitaga,Chitaga,7.137112999999999,-72.66549499999999
Colombia-Norte_Santander-Convencion,city,Colombia,Norte Santander,Convencion,Convencion,8.470146,-73.337007
Colombia-Norte_Santander-Cucutilla,city,Colombia,Norte Santander,Cucutilla,Cucutilla,7.539402999999999,-72.77228
Colombia-Norte_Santander-Durania,city,Colombia,Norte Santander,Durania,Durania,7.714685,-72.6562189
Colombia-Norte_Santander-El_Carmen,city,Colombia,Norte Santander,El Carmen,El Carmen,8.50874,-73.44879999999999
Colombia-Norte_Santander-El_Tarra,city,Colombia,Norte Santander,El Tarra,El Tarra,8.57451,-73.09339
Colombia-Norte_Santander-El_Zulia,city,Colombia,Norte Santander,El Zulia,El Zulia,7.937289,-72.604826
Colombia-Norte_Santander-Gramalote,city,Colombia,Norte Santander,Gramalote,Gramalote,7.887785999999999,-72.796795
Colombia-Norte_Santander-Hacari,city,Colombia,Norte Santander,Hacari,Hacari,8.322156999999999,-73.14587399999999
Colombia-Norte_Santander-Herran,city,Colombia,Norte Santander,Herran,Herran,7.505511,-72.483087
Colombia-Norte_Santander-Labateca,city,Colombia,Norte Santander,Labateca,Labateca,7.298617999999998,-72.496536
Colombia-Norte_Santander-La_Esperanza,city,Colombia,Norte Santander,La Esperanza,La Esperanza,7.639570999999999,-73.32753199999999
Colombia-Norte_Santander-La_Playa,city,Colombia,Norte Santander,La Playa,La Playa,8.214034999999999,-73.237889
Colombia-Norte_Santander-Los_Patios,city,Colombia,Norte Santander,Los Patios,Los Patios,7.833199,-72.504392
Colombia-Norte_Santander-Lourdes,city,Colombia,Norte Santander,Lourdes,Lourdes,7.944831,-72.831844
Colombia-Norte_Santander-Mutiscua,city,Colombia,Norte Santander,Mutiscua,Mutiscua,7.300196,-72.746803
Colombia-Norte_Santander-Ocana,city,Colombia,Norte Santander,Ocana,Ocana,8.252049999999999,-73.3532199
Colombia-Norte_Santander-Pamplona,city,Colombia,Norte Santander,Pamplona,Pamplona,7.378229999999999,-72.6503369
Colombia-Norte_Santander-Pamplonita,city,Colombia,Norte Santander,Pamplonita,Pamplonita,7.437158999999999,-72.63841900000001
Colombia-Norte_Santander-Puerto_Santander,city,Colombia,Norte Santander,Puerto Santander,Puerto Santander,8.361323,-72.408389
Colombia-Norte_Santander-Ragonvalia,city,Colombia,Norte Santander,Ragonvalia,Ragonvalia,7.577842999999999,-72.47612099999999
Colombia-Norte_Santander-Salazar,city,Colombia,Norte Santander,Salazar,Salazar,7.772786,-72.80993699999999
Colombia-Norte_Santander-San_Calixto,city,Colombia,Norte Santander,San Calixto,San Calixto,8.4015989,-73.2089979
Colombia-Norte_Santander-San_Cayetano,city,Colombia,Norte Santander,San Cayetano,San Cayetano,5.301222,-74.06970199999999
Colombia-Norte_Santander-Santiago,city,Colombia,Norte Santander,Santiago,Santiago,1.147148,-77.002405
Colombia-Norte_Santander-Sardinata,city,Colombia,Norte Santander,Sardinata,Sardinata,8.085092,-72.799937
Colombia-Norte_Santander-Silos,city,Colombia,Norte Santander,Silos,Silos,7.204823999999999,-72.75699399999999
Colombia-Norte_Santander-Teorama,city,Colombia,Norte Santander,Teorama,Teorama,8.437521,-73.2869429
Colombia-Norte_Santander-Tibu,city,Colombia,Norte Santander,Tibu,Tibu,8.642356,-72.73773299999999
Colombia-Norte_Santander-Toledo,city,Colombia,Norte Santander,Toledo,Toledo,7.307025,-72.48044399999999
Colombia-Norte_Santander-Villa_Caro,city,Colombia,Norte Santander,Villa Caro,Villa Caro,7.914546,-72.973164
Colombia-Norte_Santander-Villa_Del_Rosario,city,Colombia,Norte Santander,Villa Del Rosario,Villa Del Rosario,7.8437879,-72.46968970000002
Colombia-Quindio-Armenia,city,Colombia,Quindio,Armenia,Armenia,4.535000399999999,-75.6756888
Colombia-Quindio-Buenavista,city,Colombia,Quindio,Buenavista,Buenavista,4.358752,-75.740163
Colombia-Quindio-Calarca,city,Colombia,Quindio,Calarca,Calarca,4.530357,-75.640402
Colombia-Quindio-Circasia,city,Colombia,Quindio,Circasia,Circasia,4.616093999999999,-75.635595
Colombia-Quindio-Cordoba,city,Colombia,Quindio,Cordoba,Cordoba,8.049293,-75.57405
Colombia-Quindio-Filandia,city,Colombia,Quindio,Filandia,Filandia,4.675762,-75.659359
Colombia-Quindio-Genova,city,Colombia,Quindio,Genova,Genova,4.2497299,-75.66954
Colombia-Quindio-La_Tebaida,city,Colombia,Quindio,La Tebaida,La Tebaida,4.453588,-75.79153
Colombia-Quindio-Montenegro,city,Colombia,Quindio,Montenegro,Montenegro,4.566637,-75.75012
Colombia-Quindio-Pijao,city,Colombia,Quindio,Pijao,Pijao,4.336584,-75.702412
Colombia-Quindio-Quimbaya,city,Colombia,Quindio,Quimbaya,Quimbaya,4.625907,-75.761865
Colombia-Quindio-Salento,city,Colombia,Quindio,Salento,Salento,4.637376,-75.570777
Colombia-Risaralda-Pereira,city,Colombia,Risaralda,Pereira,Pereira,4.8087174,-75.690601
Colombia-Risaralda-Apia,city,Colombia,Risaralda,Apia,Apia,5.106663,-75.940865
Colombia-Risaralda-Balboa,city,Colombia,Risaralda,Balboa,Balboa,2.040728,-77.216606
Colombia-Risaralda-Belen_De_Umbria,city,Colombia,Risaralda,Belen De Umbria,Belen De Umbria,5.200902999999999,-75.869261
Colombia-Risaralda-Dosquebradas,city,Colombia,Risaralda,Dosquebradas,Dosquebradas,4.8318256,-75.68056779999999
Colombia-Risaralda-Guatica,city,Colombia,Risaralda,Guatica,Guatica,5.316428,-75.799407
Colombia-Risaralda-La_Celia,city,Colombia,Risaralda,La Celia,La Celia,5.003233,-76.003424
Colombia-Risaralda-La_Virginia,city,Colombia,Risaralda,La Virginia,La Virginia,4.88917,-75.87074299999999
Colombia-Risaralda-Marsella,city,Colombia,Risaralda,Marsella,Marsella,4.937236,-75.737551
Colombia-Risaralda-Mistrato,city,Colombia,Risaralda,Mistrato,Mistrato,5.2990769,-75.882128
Colombia-Risaralda-Pueblo_Rico,city,Colombia,Risaralda,Pueblo Rico,Pueblo Rico,5.222288,-76.0310499
Colombia-Risaralda-Quinchia,city,Colombia,Risaralda,Quinchia,Quinchia,5.341352,-75.730957
Colombia-Risaralda-Santa_Rosa_De_Cabal,city,Colombia,Risaralda,Santa Rosa De Cabal,Santa Rosa De Cabal,4.870121,-75.62239
Colombia-Risaralda-Santuario,city,Colombia,Risaralda,Santuario,Santuario,5.075748,-75.96414399999999
Colombia-Santander-Bucaramanga,city,Colombia,Santander,Bucaramanga,Bucaramanga,7.119349,-73.1227416
Colombia-Santander-Aguada,city,Colombia,Santander,Aguada,Aguada,6.161728999999999,-73.52239399999999
Colombia-Santander-Albania,city,Colombia,Santander,Albania,Albania,11.160651,-72.59190699999999
Colombia-Santander-Aratoca,city,Colombia,Santander,Aratoca,Aratoca,6.695018000000001,-73.017346
Colombia-Santander-Barbosa,city,Colombia,Santander,Barbosa,Barbosa,6.438790999999999,-75.334099
Colombia-Santander-Barichara,city,Colombia,Santander,Barichara,Barichara,6.635848999999999,-73.223409
Colombia-Santander-Barrancabermeja,city,Colombia,Santander,Barrancabermeja,Barrancabermeja,7.0617085,-73.8519319
Colombia-Santander-Betulia,city,Colombia,Santander,Betulia,Betulia,6.11278,-75.98467
Colombia-Santander-Bolivar,city,Colombia,Santander,Bolivar,Bolivar,8.6704382,-74.0300122
Colombia-Santander-Cabrera,city,Colombia,Santander,Cabrera,Cabrera,3.98479,-74.48418099999999
Colombia-Santander-California,city,Colombia,Santander,California,California,7.347189999999999,-72.94626
Colombia-Santander-Capitanejo,city,Colombia,Santander,Capitanejo,Capitanejo,6.528607,-72.69641299999999
Colombia-Santander-Carcasi,city,Colombia,Santander,Carcasi,Carcasi,6.626642,-72.6267809
Colombia-Santander-Cepita,city,Colombia,Santander,Cepita,Cepita,6.753889999999999,-72.97241
Colombia-Santander-Cerrito,city,Colombia,Santander,Cerrito,Cerrito,3.684084,-76.312996
Colombia-Santander-Charala,city,Colombia,Santander,Charala,Charala,6.28595,-73.147465
Colombia-Santander-Charta,city,Colombia,Santander,Charta,Charta,7.280931,-72.96804999999999
Colombia-Santander-Chima,city,Colombia,Santander,Chima,Chima,6.34469,-73.37442
Colombia-Santander-Chipata,city,Colombia,Santander,Chipata,Chipata,6.061617,-73.637199
Colombia-Santander-Cimitarra,city,Colombia,Santander,Cimitarra,Cimitarra,6.315208999999999,-73.9489059
Colombia-Santander-Concepcion,city,Colombia,Santander,Concepcion,Concepcion,6.394353,-75.256581
Colombia-Santander-Confines,city,Colombia,Santander,Confines,Confines,6.356618000000001,-73.241843
Colombia-Santander-Contratacion,city,Colombia,Santander,Contratacion,Contratacion,6.290943,-73.4742289
Colombia-Santander-Coromoro,city,Colombia,Santander,Coromoro,Coromoro,6.295618,-73.040784
Colombia-Santander-Curiti,city,Colombia,Santander,Curiti,Curiti,6.604594,-73.06924099999999
Colombia-Santander-El_Carmen_De_Chucuri,city,Colombia,Santander,El Carmen De Chucuri,El Carmen De Chucuri,6.698923000000001,-73.51159799999999
Colombia-Santander-El_Guacamayo,city,Colombia,Santander,El Guacamayo,El Guacamayo,6.245051,-73.49765099999999
Colombia-Santander-El_Penon,city,Colombia,Santander,El Penon,El Penon,6.223611,-75.178333
Colombia-Santander-El_Playon,city,Colombia,Santander,El Playon,El Playon,7.470498,-73.203211
Colombia-Santander-Encino,city,Colombia,Santander,Encino,Encino,6.13694,-73.09831
Colombia-Santander-Enciso,city,Colombia,Santander,Enciso,Enciso,6.66756,-72.70000999999999
Colombia-Santander-Florian,city,Colombia,Santander,Florian,Florian,5.803248,-73.970703
Colombia-Santander-Floridablanca,city,Colombia,Santander,Floridablanca,Floridablanca,7.0723921,-73.1069693
Colombia-Santander-Galan,city,Colombia,Santander,Galan,Galan,4.7014128,-74.1444969
Colombia-Santander-Gambita,city,Colombia,Santander,Gambita,Gambita,5.945604899999999,-73.344306
Colombia-Santander-Giron,city,Colombia,Santander,Giron,Giron,7.073967799999999,-73.1692652
Colombia-Santander-Guaca,city,Colombia,Santander,Guaca,Guaca,6.876227000000001,-72.856219
Colombia-Santander-Guadalupe,city,Colombia,Santander,Guadalupe,Guadalupe,6.246048999999999,-73.418739
Colombia-Santander-Guapota,city,Colombia,Santander,Guapota,Guapota,6.308152,-73.32095799999999
Colombia-Santander-Guavata,city,Colombia,Santander,Guavata,Guavata,5.955225,-73.701641
Colombia-Santander-Gsepsa,city,Colombia,Santander,Gsepsa,Gsepsa,4.335294999999999,-71.87936669999999
Colombia-Santander-Hato,city,Colombia,Santander,Hato,Hato,6.544078,-73.308154
Colombia-Santander-Jesus_Maria,city,Colombia,Santander,Jesus Maria,Jesus Maria,5.876811,-73.782881
Colombia-Santander-Jordan,city,Colombia,Santander,Jordan,Jordan,6.73196,-73.09693
Colombia-Santander-La_Belleza,city,Colombia,Santander,La Belleza,La Belleza,5.859414999999999,-73.96509499999999
Colombia-Santander-Landazuri,city,Colombia,Santander,Landazuri,Landazuri,6.219458899999999,-73.809258
Colombia-Santander-La_Paz,city,Colombia,Santander,La Paz,La Paz,6.189809899999999,-73.57585
Colombia-Santander-Lebrija,city,Colombia,Santander,Lebrija,Lebrija,7.111342,-73.216672
Colombia-Santander-Los_Santos,city,Colombia,Santander,Los Santos,Los Santos,6.755733999999999,-73.102305
Colombia-Santander-Macaravita,city,Colombia,Santander,Macaravita,Macaravita,6.506139999999999,-72.59259
Colombia-Santander-Malaga,city,Colombia,Santander,Malaga,Malaga,6.703857999999999,-72.729891
Colombia-Santander-Matanza,city,Colombia,Santander,Matanza,Matanza,7.32278,-73.015958
Colombia-Santander-Mogotes,city,Colombia,Santander,Mogotes,Mogotes,6.474867,-72.970517
Colombia-Santander-Molagavita,city,Colombia,Santander,Molagavita,Molagavita,6.674385000000001,-72.80926699999999
Colombia-Santander-Ocamonte,city,Colombia,Santander,Ocamonte,Ocamonte,6.339779999999999,-73.122163
Colombia-Santander-Oiba,city,Colombia,Santander,Oiba,Oiba,6.26467,-73.29838000000001
Colombia-Santander-Onzaga,city,Colombia,Santander,Onzaga,Onzaga,6.343846999999999,-72.81479200000001
Colombia-Santander-Palmar,city,Colombia,Santander,Palmar,Palmar,6.538795899999999,-73.29114799999999
Colombia-Santander-Palmas_Del_Socorro,city,Colombia,Santander,Palmas Del Socorro,Palmas Del Socorro,6.405855799999999,-73.28759289999999
Colombia-Santander-Paramo,city,Colombia,Santander,Paramo,Paramo,6.416886,-73.170777
Colombia-Santander-Piedecuesta,city,Colombia,Santander,Piedecuesta,Piedecuesta,6.991539,-73.05399799999999
Colombia-Santander-Pinchote,city,Colombia,Santander,Pinchote,Pinchote,6.53247,-73.17269999999999
Colombia-Santander-Puente_Nacional,city,Colombia,Santander,Puente Nacional,Puente Nacional,5.877927,-73.677635
Colombia-Santander-Puerto_Parra,city,Colombia,Santander,Puerto Parra,Puerto Parra,6.650797,-74.0559339
Colombia-Santander-Puerto_Wilches,city,Colombia,Santander,Puerto Wilches,Puerto Wilches,7.33875,-73.90545399999999
Colombia-Santander-Rionegro,city,Colombia,Santander,Rionegro,Rionegro,6.144837,-75.375085
Colombia-Santander-Sabana_De_Torres,city,Colombia,Santander,Sabana De Torres,Sabana De Torres,7.394791999999999,-73.500055
Colombia-Santander-San_Andres,city,Colombia,Santander,San Andres,San Andres,12.5450153,-81.7075787
Colombia-Santander-San_Benito,city,Colombia,Santander,San Benito,San Benito,6.12716,-73.509711
Colombia-Santander-San_Gil,city,Colombia,Santander,San Gil,San Gil,6.554824,-73.13412
Colombia-Santander-San_Joaquin,city,Colombia,Santander,San Joaquin,San Joaquin,6.427803,-72.868082
Colombia-Santander-San_Jose_De_Miranda,city,Colombia,Santander,San Jose De Miranda,San Jose De Miranda,6.658614,-72.733351
Colombia-Santander-San_Miguel,city,Colombia,Santander,San Miguel,San Miguel,0.33002,-76.87635999999999
Colombia-Santander-San_Vicente_De_Chucuri,city,Colombia,Santander,San Vicente De Chucuri,San Vicente De Chucuri,6.878518000000001,-73.413233
Colombia-Santander-Santa_Barbara,city,Colombia,Santander,Santa Barbara,Santa Barbara,5.874249,-75.56642099999999
Colombia-Santander-Santa_Helena_Del_Opon,city,Colombia,Santander,Santa Helena Del Opon,Santa Helena Del Opon,6.3387478,-73.616458
Colombia-Santander-Simacota,city,Colombia,Santander,Simacota,Simacota,6.443588,-73.33753399999999
Colombia-Santander-Socorro,city,Colombia,Santander,Socorro,Socorro,6.468665,-73.26404099999999
Colombia-Santander-Suaita,city,Colombia,Santander,Suaita,Suaita,6.098510999999999,-73.4432379
Colombia-Santander-Sucre,city,Colombia,Santander,Sucre,Sucre,8.813977,-74.723283
Colombia-Santander-Surata,city,Colombia,Santander,Surata,Surata,7.366515,-72.983983
Colombia-Santander-Tona,city,Colombia,Santander,Tona,Tona,7.201829999999999,-72.966757
Colombia-Santander-Valle_De_San_Jose,city,Colombia,Santander,Valle De San Jose,Valle De San Jose,6.448144,-73.14378599999999
Colombia-Santander-Velez,city,Colombia,Santander,Velez,Velez,6.00915,-73.671864
Colombia-Santander-Vetas,city,Colombia,Santander,Vetas,Vetas,7.333369999999999,-72.86667
Colombia-Santander-Villanueva,city,Colombia,Santander,Villanueva,Villanueva,10.603721,-72.98193599999999
Colombia-Santander-Zapatoca,city,Colombia,Santander,Zapatoca,Zapatoca,6.813882,-73.272537
Colombia-Sucre-Sincelejo,city,Colombia,Sucre,Sincelejo,Sincelejo,9.3045773,-75.39055669999999
Colombia-Sucre-Buenavista,city,Colombia,Sucre,Buenavista,Buenavista,4.358752,-75.740163
Colombia-Sucre-Caimito,city,Colombia,Sucre,Caimito,Caimito,8.789558,-75.11489
Colombia-Sucre-Coloso,city,Colombia,Sucre,Coloso,Coloso,9.49551,-75.35217999999999
Colombia-Sucre-Corozal,city,Colombia,Sucre,Corozal,Corozal,9.321697000000002,-75.294467
Colombia-Sucre-Covenas,city,Colombia,Sucre,Covenas,Covenas,9.402597,-75.68164200000001
Colombia-Sucre-Chalan,city,Colombia,Sucre,Chalan,Chalan,9.5458269,-75.312885
Colombia-Sucre-El_Roble,city,Colombia,Sucre,El Roble,El Roble,9.10192,-75.19554
Colombia-Sucre-Galeras,city,Colombia,Sucre,Galeras,Galeras,1.2218582,-77.3591903
Colombia-Sucre-Guaranda,city,Colombia,Sucre,Guaranda,Guaranda,8.468309999999999,-74.537025
Colombia-Sucre-La_Union,city,Colombia,Sucre,La Union,La Union,4.5334899,-76.10361600000002
Colombia-Sucre-Los_Palmitos,city,Colombia,Sucre,Los Palmitos,Los Palmitos,9.380493999999999,-75.27095
Colombia-Sucre-Majagual,city,Colombia,Sucre,Majagual,Majagual,8.54125,-74.62809899999999
Colombia-Sucre-Morroa,city,Colombia,Sucre,Morroa,Morroa,9.332193,-75.307733
Colombia-Sucre-Ovejas,city,Colombia,Sucre,Ovejas,Ovejas,9.5258559,-75.22752899999999
Colombia-Sucre-Palmito,city,Colombia,Sucre,Palmito,Palmito,9.333658999999999,-75.540823
Colombia-Sucre-Sampues,city,Colombia,Sucre,Sampues,Sampues,9.18357,-75.381105
Colombia-Sucre-San_Benito_Abad,city,Colombia,Sucre,San Benito Abad,San Benito Abad,8.931132,-75.03065099999999
Colombia-Sucre-San_Juan_De_Betulia,city,Colombia,Sucre,San Juan De Betulia,San Juan De Betulia,9.274374,-75.243774
Colombia-Sucre-San_Marcos,city,Colombia,Sucre,San Marcos,San Marcos,8.662576999999999,-75.128872
Colombia-Sucre-San_Onofre,city,Colombia,Sucre,San Onofre,San Onofre,9.74084,-75.519872
Colombia-Sucre-San_Pedro,city,Colombia,Sucre,San Pedro,San Pedro,3.99411,-76.22711
Colombia-Sucre-San_Luis_De_Since,city,Colombia,Sucre,San Luis De Since,San Luis De Since,9.241075,-75.146445
Colombia-Sucre-Sucre,city,Colombia,Sucre,Sucre,Sucre,8.813977,-74.723283
Colombia-Sucre-Santiago_De_Tolu,city,Colombia,Sucre,Santiago De Tolu,Santiago De Tolu,9.527515,-75.581273
Colombia-Sucre-Tolu_Viejo,city,Colombia,Sucre,Tolu Viejo,Tolu Viejo,9.452848999999999,-75.4391349
Colombia-Tolima-Ibague,city,Colombia,Tolima,Ibague,Ibague,4.444675999999999,-75.24243799999999
Colombia-Tolima-Alpujarra,city,Colombia,Tolima,Alpujarra,Alpujarra,3.39306,-75.93553
Colombia-Tolima-Alvarado,city,Colombia,Tolima,Alvarado,Alvarado,4.566843,-74.953211
Colombia-Tolima-Ambalema,city,Colombia,Tolima,Ambalema,Ambalema,4.782836,-74.766701
Colombia-Tolima-Anzoategui,city,Colombia,Tolima,Anzoategui,Anzoategui,4.632261,-75.09384899999999
Colombia-Tolima-Armero,city,Colombia,Tolima,Armero,Armero,4.96462,-74.90489
Colombia-Tolima-Ataco,city,Colombia,Tolima,Ataco,Ataco,3.591068,-75.381727
Colombia-Tolima-Cajamarca,city,Colombia,Tolima,Cajamarca,Cajamarca,4.441792,-75.426844
Colombia-Tolima-Carmen_De_Apicala,city,Colombia,Tolima,Carmen De Apicala,Carmen De Apicala,4.152951,-74.715312
Colombia-Tolima-Casabianca,city,Colombia,Tolima,Casabianca,Casabianca,5.078568,-75.119717
Colombia-Tolima-Chaparral,city,Colombia,Tolima,Chaparral,Chaparral,3.723827,-75.48397899999999
Colombia-Tolima-Coello,city,Colombia,Tolima,Coello,Coello,4.286261,-74.897875
Colombia-Tolima-Coyaima,city,Colombia,Tolima,Coyaima,Coyaima,3.799339,-75.19459499999999
Colombia-Tolima-Cunday,city,Colombia,Tolima,Cunday,Cunday,4.060503,-74.69189
Colombia-Tolima-Dolores,city,Colombia,Tolima,Dolores,Dolores,3.67109,-74.74951999999999
Colombia-Tolima-Espinal,city,Colombia,Tolima,Espinal,Espinal,4.149819,-74.88434099999999
Colombia-Tolima-Falan,city,Colombia,Tolima,Falan,Falan,5.123789899999999,-74.95201
Colombia-Tolima-Flandes,city,Colombia,Tolima,Flandes,Flandes,4.2867309,-74.812294
Colombia-Tolima-Fresno,city,Colombia,Tolima,Fresno,Fresno,5.153792999999999,-75.03631
Colombia-Tolima-Guamo,city,Colombia,Tolima,Guamo,Guamo,4.02926,-74.974795
Colombia-Tolima-Herveo,city,Colombia,Tolima,Herveo,Herveo,5.0801299,-75.17573
Colombia-Tolima-Honda,city,Colombia,Tolima,Honda,Honda,5.205118,-74.737081
Colombia-Tolima-Icononzo,city,Colombia,Tolima,Icononzo,Icononzo,4.17645,-74.531723
Colombia-Tolima-Lerida,city,Colombia,Tolima,Lerida,Lerida,4.860823,-74.912667
Colombia-Tolima-Libano,city,Colombia,Tolima,Libano,Libano,4.920955999999999,-75.063129
Colombia-Tolima-Mariquita,city,Colombia,Tolima,Mariquita,Mariquita,5.199504999999999,-74.88683499999999
Colombia-Tolima-Melgar,city,Colombia,Tolima,Melgar,Melgar,4.203571999999999,-74.643383
Colombia-Tolima-Murillo,city,Colombia,Tolima,Murillo,Murillo,3.80419,-74.94281
Colombia-Tolima-Natagaima,city,Colombia,Tolima,Natagaima,Natagaima,3.625529,-75.093183
Colombia-Tolima-Ortega,city,Colombia,Tolima,Ortega,Ortega,3.935841,-75.220606
Colombia-Tolima-Palocabildo,city,Colombia,Tolima,Palocabildo,Palocabildo,5.119358,-75.023736
Colombia-Tolima-Piedras,city,Colombia,Tolima,Piedras,Piedras,4.54304,-74.878165
Colombia-Tolima-Planadas,city,Colombia,Tolima,Planadas,Planadas,3.197241,-75.64381700000001
Colombia-Tolima-Prado,city,Colombia,Tolima,Prado,Prado,3.74973,-74.92773199999999
Colombia-Tolima-Purificacion,city,Colombia,Tolima,Purificacion,Purificacion,3.856684,-74.931367
Colombia-Tolima-Rioblanco,city,Colombia,Tolima,Rioblanco,Rioblanco,3.5309,-75.68052999999999
Colombia-Tolima-Roncesvalles,city,Colombia,Tolima,Roncesvalles,Roncesvalles,4.0103171,-75.6048047
Colombia-Tolima-Rovira,city,Colombia,Tolima,Rovira,Rovira,4.239304,-75.239679
Colombia-Tolima-Saldana,city,Colombia,Tolima,Saldana,Saldana,3.929018,-75.017821
Colombia-Tolima-San_Antonio,city,Colombia,Tolima,San Antonio,San Antonio,3.914098999999999,-75.479861
Colombia-Tolima-San_Luis,city,Colombia,Tolima,San Luis,San Luis,6.042453999999999,-74.995071
Colombia-Tolima-Santa_Isabel,city,Colombia,Tolima,Santa Isabel,Santa Isabel,4.7135239,-75.09772699999999
Colombia-Tolima-Suarez,city,Colombia,Tolima,Suarez,Suarez,2.9543832,-76.69540889999999
Colombia-Tolima-Valle_De_San_Juan,city,Colombia,Tolima,Valle De San Juan,Valle De San Juan,4.197954999999999,-75.1164469
Colombia-Tolima-Venadillo,city,Colombia,Tolima,Venadillo,Venadillo,4.714815,-74.931161
Colombia-Tolima-Villahermosa,city,Colombia,Tolima,Villahermosa,Villahermosa,5.030400999999999,-75.1180399
Colombia-Tolima-Villarrica,city,Colombia,Tolima,Villarrica,Villarrica,3.936661,-74.60081699999999
Colombia-Valle_Del_Cauca-Cali,city,Colombia,Valle Del Cauca,Cali,Cali,3.4516467,-76.5319854
Colombia-Valle_Del_Cauca-Alcala,city,Colombia,Valle Del Cauca,Alcala,Alcala,4.673496999999999,-75.779167
Colombia-Valle_Del_Cauca-Andalucia,city,Colombia,Valle Del Cauca,Andalucia,Andalucia,4.168711,-76.16737499999999
Colombia-Valle_Del_Cauca-Ansermanuevo,city,Colombia,Valle Del Cauca,Ansermanuevo,Ansermanuevo,4.793953,-75.991513
Colombia-Valle_Del_Cauca-Argelia,city,Colombia,Valle Del Cauca,Argelia,Argelia,5.730859,-75.142186
Colombia-Valle_Del_Cauca-Bolivar,city,Colombia,Valle Del Cauca,Bolivar,Bolivar,8.6704382,-74.0300122
